{"type":"FeatureCollection","features":[{"type":"Feature","properties":{"ParcelNumber":"16-02-126-012-0000","Street":"1221 N HARDING AVE","City":"CHICAGO","State":"IL","PostalCode":60651,"Full Address":"1221 N HARDING AVE CHICAGO IL 60651 ","PropertyClassification":"Residential Land","Ward":37,"MinimumOfferAmount":18000,"Neighborhood":"Humboldt Park","ParcelSqFt":3750,"StructureSqFt":""},"geometry":{"type":"Point","coordinates":[-87.7248337,41.9033778]}},{"type":"Feature","properties":{"ParcelNumber":"16-02-300-017-0000","Street":"1105 N PULASKI RD","City":"CHICAGO","State":"IL","PostalCode":60651,"Full Address":"1105 N PULASKI RD CHICAGO IL 60651 ","PropertyClassification":"Commercial Land","Ward":37,"MinimumOfferAmount":22000,"Neighborhood":"Humboldt Park","ParcelSqFt":3125,"StructureSqFt":""},"geometry":{"type":"Point","coordinates":[-87.725974,41.9011248]}},{"type":"Feature","properties":{"ParcelNumber":"16-02-300-033-0000","Street":"1104 N HARDING AVE","City":"CHICAGO","State":"IL","PostalCode":60651,"Full Address":"1104 N HARDING AVE CHICAGO IL 60651 ","PropertyClassification":"Residential Land","Ward":37,"MinimumOfferAmount":15000,"Neighborhood":"Humboldt Park","ParcelSqFt":3500,"StructureSqFt":""},"geometry":{"type":"Point","coordinates":[-87.7253775,41.9010195]}},{"type":"Feature","properties":{"ParcelNumber":"16-02-301-006-0000","Street":"3913 W DIVISION ST","City":"CHICAGO","State":"IL","PostalCode":60651,"Full Address":"3913 W DIVISION ST CHICAGO IL 60651 ","PropertyClassification":"Commercial Land","Ward":37,"MinimumOfferAmount":22000,"Neighborhood":"Humboldt Park","ParcelSqFt":3125,"StructureSqFt":""},"geometry":{"type":"Point","coordinates":[-87.7244462,41.9024848]}},{"type":"Feature","properties":{"ParcelNumber":"16-02-305-018-0000","Street":"1121 N RIDGEWAY AVE","City":"CHICAGO","State":"IL","PostalCode":60651,"Full Address":"1121 N RIDGEWAY AVE CHICAGO IL 60651 ","PropertyClassification":"Residential Land","Ward":27,"MinimumOfferAmount":18500,"Neighborhood":"Humboldt Park","ParcelSqFt":3906,"StructureSqFt":""},"geometry":{"type":"Point","coordinates":[-87.7199214,41.901565]}},{"type":"Feature","properties":{"ParcelNumber":"16-02-306-021-0000","Street":"3656 W THOMAS ST","City":"CHICAGO","State":"IL","PostalCode":60651,"Full Address":"3656 W THOMAS ST CHICAGO IL 60651 ","PropertyClassification":"Residential Land","Ward":27,"MinimumOfferAmount":18500,"Neighborhood":"Humboldt Park","ParcelSqFt":3875,"StructureSqFt":""},"geometry":{"type":"Point","coordinates":[-87.7186126,41.9010994]}},{"type":"Feature","properties":{"ParcelNumber":"16-02-308-022-0000","Street":"1103 N MONTICELLO AVE","City":"CHICAGO","State":"IL","PostalCode":60651,"Full Address":"1103 N MONTICELLO AVE CHICAGO IL 60651 ","PropertyClassification":"Residential Land","Ward":27,"MinimumOfferAmount":15000,"Neighborhood":"Humboldt Park","ParcelSqFt":3125,"StructureSqFt":""},"geometry":{"type":"Point","coordinates":[-87.7174733,41.9011295]}},{"type":"Feature","properties":{"ParcelNumber":"16-02-310-011-0000","Street":"1023 N HARDING AVE","City":"CHICAGO","State":"IL","PostalCode":60651,"Full Address":"1023 N HARDING AVE CHICAGO IL 60651 ","PropertyClassification":"Residential Land","Ward":37,"MinimumOfferAmount":12000,"Neighborhood":"Humboldt Park","ParcelSqFt":3125,"StructureSqFt":""},"geometry":{"type":"Point","coordinates":[-87.7246979,41.8997707]}},{"type":"Feature","properties":{"ParcelNumber":"16-02-310-025-0000","Street":"1044 N SPRINGFIELD AVE","City":"CHICAGO","State":"IL","PostalCode":60651,"Full Address":"1044 N SPRINGFIELD AVE CHICAGO IL 60651 ","PropertyClassification":"Residential Land","Ward":37,"MinimumOfferAmount":12000,"Neighborhood":"Humboldt Park","ParcelSqFt":2875,"StructureSqFt":""},"geometry":{"type":"Point","coordinates":[-87.723908,41.900393]}},{"type":"Feature","properties":{"ParcelNumber":"16-02-314-031-0000","Street":"1030 N LAWNDALE AVE","City":"CHICAGO","State":"IL","PostalCode":60651,"Full Address":"1030 N LAWNDALE AVE CHICAGO IL 60651 ","PropertyClassification":"Residential Land","Ward":27,"MinimumOfferAmount":18500,"Neighborhood":"Humboldt Park","ParcelSqFt":4687,"StructureSqFt":""},"geometry":{"type":"Point","coordinates":[-87.7191863,41.9000074]}},{"type":"Feature","properties":{"ParcelNumber":"16-02-316-008-0000","Street":"1041 N MONTICELLO AVE","City":"CHICAGO","State":"IL","PostalCode":60651,"Full Address":"1041 N MONTICELLO AVE CHICAGO IL 60651 ","PropertyClassification":"Residential Land","Ward":27,"MinimumOfferAmount":15000,"Neighborhood":"Humboldt Park","ParcelSqFt":3125,"StructureSqFt":""},"geometry":{"type":"Point","coordinates":[-87.7173963,41.9003142]}},{"type":"Feature","properties":{"ParcelNumber":"16-02-316-017-0000","Street":"1015 N MONTICELLO AVE","City":"CHICAGO","State":"IL","PostalCode":60651,"Full Address":"1015 N MONTICELLO AVE CHICAGO IL 60651 ","PropertyClassification":"Residential Land","Ward":27,"MinimumOfferAmount":15000,"Neighborhood":"Humboldt Park","ParcelSqFt":3125,"StructureSqFt":""},"geometry":{"type":"Point","coordinates":[-87.7173867,41.8996454]}},{"type":"Feature","properties":{"ParcelNumber":"16-02-316-023-0000","Street":"1058 N CENTRAL PARK AVE","City":"CHICAGO","State":"IL","PostalCode":60651,"Full Address":"1058 N CENTRAL PARK AVE CHICAGO IL 60651 ","PropertyClassification":"Residential Land","Ward":27,"MinimumOfferAmount":24500,"Neighborhood":"Humboldt Park","ParcelSqFt":5462,"StructureSqFt":""},"geometry":{"type":"Point","coordinates":[-87.716836,41.900773]}},{"type":"Feature","properties":{"ParcelNumber":"16-02-316-024-0000","Street":"1052 N CENTRAL PARK AVE","City":"CHICAGO","State":"IL","PostalCode":60651,"Full Address":"1052 N CENTRAL PARK AVE CHICAGO IL 60651 ","PropertyClassification":"Residential Land","Ward":27,"MinimumOfferAmount":22000,"Neighborhood":"Humboldt Park","ParcelSqFt":3750,"StructureSqFt":""},"geometry":{"type":"Point","coordinates":[-87.7168635,41.900622]}},{"type":"Feature","properties":{"ParcelNumber":"16-02-318-039-0000","Street":"918 N SPRINGFIELD AVE","City":"CHICAGO","State":"IL","PostalCode":60651,"Full Address":"918 N SPRINGFIELD AVE CHICAGO IL 60651 ","PropertyClassification":"Residential Land","Ward":37,"MinimumOfferAmount":15000,"Neighborhood":"Humboldt Park","ParcelSqFt":3125,"StructureSqFt":""},"geometry":{"type":"Point","coordinates":[-87.724153,41.8978235]}},{"type":"Feature","properties":{"ParcelNumber":"16-02-319-024-0000","Street":"952 N AVERS AVE","City":"CHICAGO","State":"IL","PostalCode":60651,"Full Address":"952 N AVERS AVE CHICAGO IL 60651 ","PropertyClassification":"Residential Land","Ward":37,"MinimumOfferAmount":18000,"Neighborhood":"Humboldt Park","ParcelSqFt":3625,"StructureSqFt":""},"geometry":{"type":"Point","coordinates":[-87.7227896,41.8987675]}},{"type":"Feature","properties":{"ParcelNumber":"16-02-323-024-0000","Street":"954 N MONTICELLO AVE","City":"CHICAGO","State":"IL","PostalCode":60651,"Full Address":"954 N MONTICELLO AVE CHICAGO IL 60651 ","PropertyClassification":"Residential Land","Ward":27,"MinimumOfferAmount":15000,"Neighborhood":"Humboldt Park","ParcelSqFt":3125,"StructureSqFt":""},"geometry":{"type":"Point","coordinates":[-87.7180052,41.8989]}},{"type":"Feature","properties":{"ParcelNumber":"16-02-324-008-0000","Street":"939 N MONTICELLO AVE","City":"CHICAGO","State":"IL","PostalCode":60651,"Full Address":"939 N MONTICELLO AVE CHICAGO IL 60651 ","PropertyClassification":"Residential Land","Ward":27,"MinimumOfferAmount":15000,"Neighborhood":"Humboldt Park","ParcelSqFt":3125,"StructureSqFt":""},"geometry":{"type":"Point","coordinates":[-87.7173578,41.8984143]}},{"type":"Feature","properties":{"ParcelNumber":"16-02-326-038-0000","Street":"3914 W CHICAGO AVE","City":"CHICAGO","State":"IL","PostalCode":60651,"Full Address":"3914 W CHICAGO AVE CHICAGO IL 60651 ","PropertyClassification":"Commercial Land","Ward":37,"MinimumOfferAmount":22000,"Neighborhood":"Humboldt Park","ParcelSqFt":2992,"StructureSqFt":""},"geometry":{"type":"Point","coordinates":[-87.7243401,41.8956754]}},{"type":"Feature","properties":{"ParcelNumber":"16-02-327-010-0000","Street":"833 N SPRINGFIELD AVE","City":"CHICAGO","State":"IL","PostalCode":60651,"Full Address":"833 N SPRINGFIELD AVE CHICAGO IL 60651 ","PropertyClassification":"Residential Land","Ward":37,"MinimumOfferAmount":15000,"Neighborhood":"Humboldt Park","ParcelSqFt":3125,"StructureSqFt":""},"geometry":{"type":"Point","coordinates":[-87.7233694,41.8964334]}},{"type":"Feature","properties":{"ParcelNumber":"16-02-329-008-0000","Street":"841 N HAMLIN AVE","City":"CHICAGO","State":"IL","PostalCode":60651,"Full Address":"841 N HAMLIN AVE CHICAGO IL 60651 ","PropertyClassification":"Residential Land","Ward":27,"MinimumOfferAmount":15000,"Neighborhood":"Humboldt Park","ParcelSqFt":3125,"StructureSqFt":""},"geometry":{"type":"Point","coordinates":[-87.7209462,41.8966153]}},{"type":"Feature","properties":{"ParcelNumber":"16-02-330-032-0000","Street":"824 N LAWNDALE AVE","City":"CHICAGO","State":"IL","PostalCode":60651,"Full Address":"824 N LAWNDALE AVE CHICAGO IL 60651 ","PropertyClassification":"Residential Land","Ward":27,"MinimumOfferAmount":10000,"Neighborhood":"Humboldt Park","ParcelSqFt":3125,"StructureSqFt":""},"geometry":{"type":"Point","coordinates":[-87.7190338,41.896243]}},{"type":"Feature","properties":{"ParcelNumber":"16-02-331-035-0000","Street":"3658 W CHICAGO AVE","City":"CHICAGO","State":"IL","PostalCode":60651,"Full Address":"3658 W CHICAGO AVE CHICAGO IL 60651 ","PropertyClassification":"Commercial Land","Ward":27,"MinimumOfferAmount":24500,"Neighborhood":"Humboldt Park","ParcelSqFt":3142.52,"StructureSqFt":""},"geometry":{"type":"Point","coordinates":[-87.7185458,41.8957261]}},{"type":"Feature","properties":{"ParcelNumber":"16-02-331-040-0000","Street":"3640 W CHICAGO AVE","City":"CHICAGO","State":"IL","PostalCode":60651,"Full Address":"3640 W CHICAGO AVE CHICAGO IL 60651 ","PropertyClassification":"Commercial Land","Ward":27,"MinimumOfferAmount":22000,"Neighborhood":"Humboldt Park","ParcelSqFt":3000,"StructureSqFt":""},"geometry":{"type":"Point","coordinates":[-87.7179351,41.8956352]}},{"type":"Feature","properties":{"ParcelNumber":"16-02-331-043-0000","Street":"841 N LAWNDALE AVE","City":"CHICAGO","State":"IL","PostalCode":60651,"Full Address":"841 N LAWNDALE AVE CHICAGO IL 60651 ","PropertyClassification":"Residential Land","Ward":27,"MinimumOfferAmount":15000,"Neighborhood":"Humboldt Park","ParcelSqFt":3074,"StructureSqFt":""},"geometry":{"type":"Point","coordinates":[-87.718447,41.896662]}},{"type":"Feature","properties":{"ParcelNumber":"16-02-331-044-0000","Street":"843 N LAWNDALE AVE","City":"CHICAGO","State":"IL","PostalCode":60651,"Full Address":"843 N LAWNDALE AVE CHICAGO IL 60651 ","PropertyClassification":"Residential Land","Ward":27,"MinimumOfferAmount":15000,"Neighborhood":"Humboldt Park","ParcelSqFt":3076,"StructureSqFt":""},"geometry":{"type":"Point","coordinates":[-87.7184488,41.8967146]}},{"type":"Feature","properties":{"ParcelNumber":"16-02-405-024-0000","Street":"1048 N SAINT LOUIS AVE","City":"CHICAGO","State":"IL","PostalCode":60651,"Full Address":"1048 N SAINT LOUIS AVE CHICAGO IL 60651 ","PropertyClassification":"Residential Land","Ward":27,"MinimumOfferAmount":18500,"Neighborhood":"Humboldt Park","ParcelSqFt":3750,"StructureSqFt":""},"geometry":{"type":"Point","coordinates":[-87.7143041,41.9005685]}},{"type":"Feature","properties":{"ParcelNumber":"16-02-417-022-0000","Street":"905 N SAINT LOUIS AVE","City":"CHICAGO","State":"IL","PostalCode":60651,"Full Address":"905 N SAINT LOUIS AVE CHICAGO IL 60651 ","PropertyClassification":"Residential Land","Ward":27,"MinimumOfferAmount":15000,"Neighborhood":"Humboldt Park","ParcelSqFt":3125,"StructureSqFt":""},"geometry":{"type":"Point","coordinates":[-87.713442,41.8974937]}},{"type":"Feature","properties":{"ParcelNumber":"16-02-420-014-0000","Street":"825 N DRAKE AVE","City":"CHICAGO","State":"IL","PostalCode":60651,"Full Address":"825 N DRAKE AVE CHICAGO IL 60651 ","PropertyClassification":"Residential Land","Ward":27,"MinimumOfferAmount":15000,"Neighborhood":"Humboldt Park","ParcelSqFt":3125,"StructureSqFt":""},"geometry":{"type":"Point","coordinates":[-87.7149045,41.8963212]}},{"type":"Feature","properties":{"ParcelNumber":"16-02-421-017-0000","Street":"819 N SAINT LOUIS AVE","City":"CHICAGO","State":"IL","PostalCode":60651,"Full Address":"819 N SAINT LOUIS AVE CHICAGO IL 60651 ","PropertyClassification":"Residential Land","Ward":27,"MinimumOfferAmount":15000,"Neighborhood":"Humboldt Park","ParcelSqFt":3125,"StructureSqFt":""},"geometry":{"type":"Point","coordinates":[-87.7135349,41.896084]}},{"type":"Feature","properties":{"ParcelNumber":"16-02-421-041-0000","Street":"3440 W CHICAGO AVE","City":"CHICAGO","State":"IL","PostalCode":60651,"Full Address":"3440 W CHICAGO AVE CHICAGO IL 60651 ","PropertyClassification":"Commercial Land","Ward":27,"MinimumOfferAmount":22000,"Neighborhood":"Humboldt Park","ParcelSqFt":3125,"StructureSqFt":""},"geometry":{"type":"Point","coordinates":[-87.713098,41.895766]}},{"type":"Feature","properties":{"ParcelNumber":"16-02-422-031-0000","Street":"822 N HOMAN AVE","City":"CHICAGO","State":"IL","PostalCode":60651,"Full Address":"822 N HOMAN AVE CHICAGO IL 60651 ","PropertyClassification":"Residential Land","Ward":27,"MinimumOfferAmount":12000,"Neighborhood":"Humboldt Park","ParcelSqFt":3500,"StructureSqFt":""},"geometry":{"type":"Point","coordinates":[-87.7117678,41.896259]}},{"type":"Feature","properties":{"ParcelNumber":"16-02-422-032-0000","Street":"820 N HOMAN AVE","City":"CHICAGO","State":"IL","PostalCode":60651,"Full Address":"820 N HOMAN AVE CHICAGO IL 60651 ","PropertyClassification":"Residential Land","Ward":27,"MinimumOfferAmount":12000,"Neighborhood":"Humboldt Park","ParcelSqFt":3500,"StructureSqFt":""},"geometry":{"type":"Point","coordinates":[-87.7117678,41.8962008]}},{"type":"Feature","properties":{"ParcelNumber":"16-03-216-042-0000","Street":"1408 N KEELER AVE","City":"CHICAGO","State":"IL","PostalCode":60651,"Full Address":"1408 N KEELER AVE CHICAGO IL 60651 ","PropertyClassification":"Residential Land","Ward":26,"MinimumOfferAmount":15000,"Neighborhood":"Humboldt Park","ParcelSqFt":3024,"StructureSqFt":""},"geometry":{"type":"Point","coordinates":[-87.7316589,41.9065579]}},{"type":"Feature","properties":{"ParcelNumber":"16-03-226-030-0000","Street":"4132 W POTOMAC AVE","City":"CHICAGO","State":"IL","PostalCode":60651,"Full Address":"4132 W POTOMAC AVE CHICAGO IL 60651 ","PropertyClassification":"Residential Land","Ward":37,"MinimumOfferAmount":15000,"Neighborhood":"Humboldt Park","ParcelSqFt":3100,"StructureSqFt":""},"geometry":{"type":"Point","coordinates":[-87.7301768,41.9046901]}},{"type":"Feature","properties":{"ParcelNumber":"16-03-406-008-0000","Street":"1137 N KARLOV AVE","City":"CHICAGO","State":"IL","PostalCode":60651,"Full Address":"1137 N KARLOV AVE CHICAGO IL 60651 ","PropertyClassification":"Residential Land","Ward":37,"MinimumOfferAmount":14000,"Neighborhood":"Humboldt Park","ParcelSqFt":3780,"StructureSqFt":""},"geometry":{"type":"Point","coordinates":[-87.7284588,41.9019063]}},{"type":"Feature","properties":{"ParcelNumber":"16-03-415-027-0000","Street":"1040 N PULASKI RD","City":"CHICAGO","State":"IL","PostalCode":60651,"Full Address":"1040 N PULASKI RD CHICAGO IL 60651 ","PropertyClassification":"Residential Land","Ward":37,"MinimumOfferAmount":22000,"Neighborhood":"Humboldt Park","ParcelSqFt":3810,"StructureSqFt":""},"geometry":{"type":"Point","coordinates":[-87.7265159,41.9002232]}},{"type":"Feature","properties":{"ParcelNumber":"16-03-428-030-0000","Street":"812 N KEDVALE AVE","City":"CHICAGO","State":"IL","PostalCode":60651,"Full Address":"812 N KEDVALE AVE CHICAGO IL 60651 ","PropertyClassification":"Residential Land","Ward":37,"MinimumOfferAmount":15000,"Neighborhood":"Humboldt Park","ParcelSqFt":3810,"StructureSqFt":""},"geometry":{"type":"Point","coordinates":[-87.7301163,41.8958786]}},{"type":"Feature","properties":{"ParcelNumber":"16-11-101-010-0000","Street":"3903 W CHICAGO AVE","City":"CHICAGO","State":"IL","PostalCode":60651,"Full Address":"3903 W CHICAGO AVE CHICAGO IL 60651 ","PropertyClassification":"Commercial Land","Ward":37,"MinimumOfferAmount":45000,"Neighborhood":"Humboldt Park","ParcelSqFt":3086.7,"StructureSqFt":""},"geometry":{"type":"Point","coordinates":[-87.7238687,41.8950712]}},{"type":"Feature","properties":{"ParcelNumber":"16-11-101-044-0000","Street":"3904 W HURON ST","City":"CHICAGO","State":"IL","PostalCode":60624,"Full Address":"3904 W HURON ST CHICAGO IL 60624 ","PropertyClassification":"Residential Land","Ward":37,"MinimumOfferAmount":18000,"Neighborhood":"Humboldt Park","ParcelSqFt":4156,"StructureSqFt":""},"geometry":{"type":"Point","coordinates":[-87.723849,41.893836]}},{"type":"Feature","properties":{"ParcelNumber":"16-11-101-045-0000","Street":"3900 W HURON ST","City":"CHICAGO","State":"IL","PostalCode":60624,"Full Address":"3900 W HURON ST CHICAGO IL 60624 ","PropertyClassification":"Residential Land","Ward":37,"MinimumOfferAmount":15000,"Neighborhood":"Humboldt Park","ParcelSqFt":3125,"StructureSqFt":""},"geometry":{"type":"Point","coordinates":[-87.7237658,41.8938356]}},{"type":"Feature","properties":{"ParcelNumber":"16-11-109-014-0000","Street":"3937 W ERIE ST","City":"CHICAGO","State":"IL","PostalCode":60624,"Full Address":"3937 W ERIE ST CHICAGO IL 60624 ","PropertyClassification":"Residential Land","Ward":37,"MinimumOfferAmount":5500,"Neighborhood":"Humboldt Park","ParcelSqFt":1533,"StructureSqFt":""},"geometry":{"type":"Point","coordinates":[-87.7249846,41.8927506]}},{"type":"Feature","properties":{"ParcelNumber":"16-11-109-022-0000","Street":"3948 W ONTARIO ST","City":"CHICAGO","State":"IL","PostalCode":60624,"Full Address":"3948 W ONTARIO ST CHICAGO IL 60624 ","PropertyClassification":"Residential Land","Ward":37,"MinimumOfferAmount":5500,"Neighborhood":"Humboldt Park","ParcelSqFt":1554,"StructureSqFt":""},"geometry":{"type":"Point","coordinates":[-87.7253727,41.8924956]}},{"type":"Feature","properties":{"ParcelNumber":"16-11-109-027-0000","Street":"3938 W ONTARIO ST","City":"CHICAGO","State":"IL","PostalCode":60624,"Full Address":"3938 W ONTARIO ST CHICAGO IL 60624 ","PropertyClassification":"Residential Land","Ward":37,"MinimumOfferAmount":5500,"Neighborhood":"Humboldt Park","ParcelSqFt":1551,"StructureSqFt":""},"geometry":{"type":"Point","coordinates":[-87.725051,41.8924765]}},{"type":"Feature","properties":{"ParcelNumber":"16-11-109-028-0000","Street":"3936 W ONTARIO ST","City":"CHICAGO","State":"IL","PostalCode":60624,"Full Address":"3936 W ONTARIO ST CHICAGO IL 60624 ","PropertyClassification":"Residential Land","Ward":37,"MinimumOfferAmount":5500,"Neighborhood":"Humboldt Park","ParcelSqFt":1554,"StructureSqFt":""},"geometry":{"type":"Point","coordinates":[-87.7249816,41.8924769]}},{"type":"Feature","properties":{"ParcelNumber":"16-11-109-029-0000","Street":"3934 W ONTARIO ST","City":"CHICAGO","State":"IL","PostalCode":60624,"Full Address":"3934 W ONTARIO ST CHICAGO IL 60624 ","PropertyClassification":"Residential Land","Ward":37,"MinimumOfferAmount":5500,"Neighborhood":"Humboldt Park","ParcelSqFt":1631,"StructureSqFt":""},"geometry":{"type":"Point","coordinates":[-87.7249113,41.8924783]}},{"type":"Feature","properties":{"ParcelNumber":"16-11-110-005-0000","Street":"3957 W ONTARIO ST","City":"CHICAGO","State":"IL","PostalCode":60624,"Full Address":"3957 W ONTARIO ST CHICAGO IL 60624 ","PropertyClassification":"Residential Land","Ward":37,"MinimumOfferAmount":5500,"Neighborhood":"Humboldt Park","ParcelSqFt":1408,"StructureSqFt":""},"geometry":{"type":"Point","coordinates":[-87.7256101,41.8921584]}},{"type":"Feature","properties":{"ParcelNumber":"16-11-110-009-0000","Street":"3949 W ONTARIO ST","City":"CHICAGO","State":"IL","PostalCode":60624,"Full Address":"3949 W ONTARIO ST CHICAGO IL 60624 ","PropertyClassification":"Residential Land","Ward":37,"MinimumOfferAmount":5500,"Neighborhood":"Humboldt Park","ParcelSqFt":1408,"StructureSqFt":""},"geometry":{"type":"Point","coordinates":[-87.725328,41.892142]}},{"type":"Feature","properties":{"ParcelNumber":"16-11-110-011-0000","Street":"3945 W ONTARIO ST","City":"CHICAGO","State":"IL","PostalCode":60624,"Full Address":"3945 W ONTARIO ST CHICAGO IL 60624 ","PropertyClassification":"Residential Land","Ward":37,"MinimumOfferAmount":5500,"Neighborhood":"Humboldt Park","ParcelSqFt":1408,"StructureSqFt":""},"geometry":{"type":"Point","coordinates":[-87.725212,41.892145]}},{"type":"Feature","properties":{"ParcelNumber":"16-11-110-021-0000","Street":"3956 W OHIO ST","City":"CHICAGO","State":"IL","PostalCode":60624,"Full Address":"3956 W OHIO ST CHICAGO IL 60624 ","PropertyClassification":"Residential Land","Ward":37,"MinimumOfferAmount":5500,"Neighborhood":"Humboldt Park","ParcelSqFt":1232,"StructureSqFt":""},"geometry":{"type":"Point","coordinates":[-87.7254716,41.891974]}},{"type":"Feature","properties":{"ParcelNumber":"16-11-110-022-0000","Street":"3954 W OHIO ST","City":"CHICAGO","State":"IL","PostalCode":60624,"Full Address":"3954 W OHIO ST CHICAGO IL 60624 ","PropertyClassification":"Residential Land","Ward":37,"MinimumOfferAmount":5500,"Neighborhood":"Humboldt Park","ParcelSqFt":1232,"StructureSqFt":""},"geometry":{"type":"Point","coordinates":[-87.7254667,41.891913]}},{"type":"Feature","properties":{"ParcelNumber":"16-11-110-026-0000","Street":"3946 W OHIO ST","City":"CHICAGO","State":"IL","PostalCode":60624,"Full Address":"3946 W OHIO ST CHICAGO IL 60624 ","PropertyClassification":"Residential Land","Ward":37,"MinimumOfferAmount":5500,"Neighborhood":"Humboldt Park","ParcelSqFt":1232,"StructureSqFt":""},"geometry":{"type":"Point","coordinates":[-87.7252828,41.8919057]}},{"type":"Feature","properties":{"ParcelNumber":"16-11-110-027-0000","Street":"3944 W OHIO ST","City":"CHICAGO","State":"IL","PostalCode":60624,"Full Address":"3944 W OHIO ST CHICAGO IL 60624 ","PropertyClassification":"Residential Land","Ward":37,"MinimumOfferAmount":5500,"Neighborhood":"Humboldt Park","ParcelSqFt":1232,"StructureSqFt":""},"geometry":{"type":"Point","coordinates":[-87.7252613,41.8919061]}},{"type":"Feature","properties":{"ParcelNumber":"16-11-110-029-0000","Street":"3940 W OHIO ST","City":"CHICAGO","State":"IL","PostalCode":60624,"Full Address":"3940 W OHIO ST CHICAGO IL 60624 ","PropertyClassification":"Residential Land","Ward":37,"MinimumOfferAmount":5500,"Neighborhood":"Humboldt Park","ParcelSqFt":1232,"StructureSqFt":""},"geometry":{"type":"Point","coordinates":[-87.725087,41.8919179]}},{"type":"Feature","properties":{"ParcelNumber":"16-11-111-023-0000","Street":"654 N SPRINGFIELD AVE","City":"CHICAGO","State":"IL","PostalCode":60624,"Full Address":"654 N SPRINGFIELD AVE CHICAGO IL 60624 ","PropertyClassification":"Residential Land","Ward":37,"MinimumOfferAmount":10000,"Neighborhood":"Humboldt Park","ParcelSqFt":3125,"StructureSqFt":""},"geometry":{"type":"Point","coordinates":[-87.7240433,41.8933356]}},{"type":"Feature","properties":{"ParcelNumber":"16-11-111-026-0000","Street":"646 N SPRINGFIELD AVE","City":"CHICAGO","State":"IL","PostalCode":60624,"Full Address":"646 N SPRINGFIELD AVE CHICAGO IL 60624 ","PropertyClassification":"Residential Land","Ward":37,"MinimumOfferAmount":10000,"Neighborhood":"Humboldt Park","ParcelSqFt":3125,"StructureSqFt":""},"geometry":{"type":"Point","coordinates":[-87.723913,41.8931439]}},{"type":"Feature","properties":{"ParcelNumber":"16-11-112-024-0000","Street":"613 N SPRINGFIELD AVE","City":"CHICAGO","State":"IL","PostalCode":60624,"Full Address":"613 N SPRINGFIELD AVE CHICAGO IL 60624 ","PropertyClassification":"Residential Land","Ward":37,"MinimumOfferAmount":9800,"Neighborhood":"Humboldt Park","ParcelSqFt":2994,"StructureSqFt":""},"geometry":{"type":"Point","coordinates":[-87.7231847,41.8922705]}},{"type":"Feature","properties":{"ParcelNumber":"16-11-112-058-0000","Street":"625 N SPRINGFIELD AVE","City":"CHICAGO","State":"IL","PostalCode":60624,"Full Address":"625 N SPRINGFIELD AVE CHICAGO IL 60624 ","PropertyClassification":"Residential Land","Ward":37,"MinimumOfferAmount":10000,"Neighborhood":"Humboldt Park","ParcelSqFt":3024,"StructureSqFt":""},"geometry":{"type":"Point","coordinates":[-87.7232603,41.8925314]}},{"type":"Feature","properties":{"ParcelNumber":"16-11-113-044-0000","Street":"3806 W OHIO ST","City":"CHICAGO","State":"IL","PostalCode":60624,"Full Address":"3806 W OHIO ST CHICAGO IL 60624 ","PropertyClassification":"Residential Land","Ward":27,"MinimumOfferAmount":10000,"Neighborhood":"Humboldt Park","ParcelSqFt":3474,"StructureSqFt":""},"geometry":{"type":"Point","coordinates":[-87.7215422,41.8920208]}},{"type":"Feature","properties":{"ParcelNumber":"16-11-114-012-0000","Street":"623 N HAMLIN AVE","City":"CHICAGO","State":"IL","PostalCode":60624,"Full Address":"623 N HAMLIN AVE CHICAGO IL 60624 ","PropertyClassification":"Residential Land","Ward":27,"MinimumOfferAmount":18500,"Neighborhood":"Humboldt Park","ParcelSqFt":5856,"StructureSqFt":""},"geometry":{"type":"Point","coordinates":[-87.7214784,41.8926798]}},{"type":"Feature","properties":{"ParcelNumber":"16-11-115-018-0000","Street":"613 N RIDGEWAY AVE","City":"CHICAGO","State":"IL","PostalCode":60624,"Full Address":"613 N RIDGEWAY AVE CHICAGO IL 60624 ","PropertyClassification":"Residential Land","Ward":27,"MinimumOfferAmount":24500,"Neighborhood":"Humboldt Park","ParcelSqFt":5750,"StructureSqFt":""},"geometry":{"type":"Point","coordinates":[-87.719632,41.8922162]}},{"type":"Feature","properties":{"ParcelNumber":"16-11-116-017-0000","Street":"611 N LAWNDALE AVE","City":"CHICAGO","State":"IL","PostalCode":60624,"Full Address":"611 N LAWNDALE AVE CHICAGO IL 60624 ","PropertyClassification":"Residential Land","Ward":27,"MinimumOfferAmount":12000,"Neighborhood":"Humboldt Park","ParcelSqFt":3000,"StructureSqFt":""},"geometry":{"type":"Point","coordinates":[-87.718294,41.892187]}},{"type":"Feature","properties":{"ParcelNumber":"16-11-118-029-0000","Street":"526 N HARDING AVE","City":"CHICAGO","State":"IL","PostalCode":60624,"Full Address":"526 N HARDING AVE CHICAGO IL 60624 ","PropertyClassification":"Residential Land","Ward":37,"MinimumOfferAmount":7500,"Neighborhood":"Humboldt Park","ParcelSqFt":3125,"StructureSqFt":""},"geometry":{"type":"Point","coordinates":[-87.7249889,41.8907461]}},{"type":"Feature","properties":{"ParcelNumber":"16-11-118-030-0000","Street":"524 N HARDING AVE","City":"CHICAGO","State":"IL","PostalCode":60624,"Full Address":"524 N HARDING AVE CHICAGO IL 60624 ","PropertyClassification":"Residential Land","Ward":37,"MinimumOfferAmount":7500,"Neighborhood":"Humboldt Park","ParcelSqFt":3125,"StructureSqFt":""},"geometry":{"type":"Point","coordinates":[-87.7249889,41.8906686]}},{"type":"Feature","properties":{"ParcelNumber":"16-11-119-012-0000","Street":"531 N HARDING AVE","City":"CHICAGO","State":"IL","PostalCode":60624,"Full Address":"531 N HARDING AVE CHICAGO IL 60624 ","PropertyClassification":"Residential Land","Ward":37,"MinimumOfferAmount":7500,"Neighborhood":"Humboldt Park","ParcelSqFt":3150,"StructureSqFt":""},"geometry":{"type":"Point","coordinates":[-87.7243785,41.8908297]}},{"type":"Feature","properties":{"ParcelNumber":"16-11-119-029-0000","Street":"542 N SPRINGFIELD AVE","City":"CHICAGO","State":"IL","PostalCode":60624,"Full Address":"542 N SPRINGFIELD AVE CHICAGO IL 60624 ","PropertyClassification":"Residential Land","Ward":37,"MinimumOfferAmount":9800,"Neighborhood":"Humboldt Park","ParcelSqFt":2750,"StructureSqFt":""},"geometry":{"type":"Point","coordinates":[-87.7238494,41.8911389]}},{"type":"Feature","properties":{"ParcelNumber":"16-11-119-031-0000","Street":"536 N SPRINGFIELD AVE","City":"CHICAGO","State":"IL","PostalCode":60624,"Full Address":"536 N SPRINGFIELD AVE CHICAGO IL 60624 ","PropertyClassification":"Residential Land","Ward":37,"MinimumOfferAmount":10000,"Neighborhood":"Humboldt Park","ParcelSqFt":3093,"StructureSqFt":""},"geometry":{"type":"Point","coordinates":[-87.7237454,41.8910249]}},{"type":"Feature","properties":{"ParcelNumber":"16-11-120-042-0000","Street":"3834 W FERDINAND ST","City":"CHICAGO","State":"IL","PostalCode":60624,"Full Address":"3834 W FERDINAND ST CHICAGO IL 60624 ","PropertyClassification":"Residential Land","Ward":37,"MinimumOfferAmount":12000,"Neighborhood":"Humboldt Park","ParcelSqFt":3369.92,"StructureSqFt":""},"geometry":{"type":"Point","coordinates":[-87.722416,41.890188]}},{"type":"Feature","properties":{"ParcelNumber":"16-11-121-002-0000","Street":"3815 W OHIO ST","City":"CHICAGO","State":"IL","PostalCode":60624,"Full Address":"3815 W OHIO ST CHICAGO IL 60624 ","PropertyClassification":"Residential Land","Ward":27,"MinimumOfferAmount":18000,"Neighborhood":"Humboldt Park","ParcelSqFt":8122,"StructureSqFt":""},"geometry":{"type":"Point","coordinates":[-87.7218986,41.8915663]}},{"type":"Feature","properties":{"ParcelNumber":"16-11-122-024-0000","Street":"554 N RIDGEWAY AVE","City":"CHICAGO","State":"IL","PostalCode":60624,"Full Address":"554 N RIDGEWAY AVE CHICAGO IL 60624 ","PropertyClassification":"Residential Land","Ward":27,"MinimumOfferAmount":15000,"Neighborhood":"Humboldt Park","ParcelSqFt":3050,"StructureSqFt":""},"geometry":{"type":"Point","coordinates":[-87.720194,41.8915239]}},{"type":"Feature","properties":{"ParcelNumber":"16-11-123-006-0000","Street":"3707 W OHIO ST","City":"CHICAGO","State":"IL","PostalCode":60624,"Full Address":"3707 W OHIO ST CHICAGO IL 60624 ","PropertyClassification":"Residential Land","Ward":27,"MinimumOfferAmount":10000,"Neighborhood":"Humboldt Park","ParcelSqFt":3393,"StructureSqFt":""},"geometry":{"type":"Point","coordinates":[-87.7190895,41.8915107]}},{"type":"Feature","properties":{"ParcelNumber":"16-11-123-024-0000","Street":"530 N LAWNDALE AVE","City":"CHICAGO","State":"IL","PostalCode":60624,"Full Address":"530 N LAWNDALE AVE CHICAGO IL 60624 ","PropertyClassification":"Residential Land","Ward":27,"MinimumOfferAmount":10000,"Neighborhood":"Humboldt Park","ParcelSqFt":3250,"StructureSqFt":""},"geometry":{"type":"Point","coordinates":[-87.7189954,41.8909181]}},{"type":"Feature","properties":{"ParcelNumber":"16-11-123-042-0000","Street":"538 N LAWNDALE AVE","City":"CHICAGO","State":"IL","PostalCode":60624,"Full Address":"538 N LAWNDALE AVE CHICAGO IL 60624 ","PropertyClassification":"Residential Land","Ward":27,"MinimumOfferAmount":9800,"Neighborhood":"Humboldt Park","ParcelSqFt":2970,"StructureSqFt":""},"geometry":{"type":"Point","coordinates":[-87.7189627,41.8910749]}},{"type":"Feature","properties":{"ParcelNumber":"16-11-123-043-0000","Street":"540 N LAWNDALE AVE","City":"CHICAGO","State":"IL","PostalCode":60624,"Full Address":"540 N LAWNDALE AVE CHICAGO IL 60624 ","PropertyClassification":"Residential Land","Ward":27,"MinimumOfferAmount":9800,"Neighborhood":"Humboldt Park","ParcelSqFt":2980.77,"StructureSqFt":""},"geometry":{"type":"Point","coordinates":[-87.7189762,41.8911839]}},{"type":"Feature","properties":{"ParcelNumber":"16-11-123-044-0000","Street":"542 N LAWNDALE AVE","City":"CHICAGO","State":"IL","PostalCode":60624,"Full Address":"542 N LAWNDALE AVE CHICAGO IL 60624 ","PropertyClassification":"Residential Land","Ward":27,"MinimumOfferAmount":9800,"Neighborhood":"Humboldt Park","ParcelSqFt":2981,"StructureSqFt":""},"geometry":{"type":"Point","coordinates":[-87.718977,41.8912492]}},{"type":"Feature","properties":{"ParcelNumber":"16-11-124-006-0000","Street":"3649 W OHIO ST","City":"CHICAGO","State":"IL","PostalCode":60624,"Full Address":"3649 W OHIO ST CHICAGO IL 60624 ","PropertyClassification":"Residential Land","Ward":27,"MinimumOfferAmount":5000,"Neighborhood":"Humboldt Park","ParcelSqFt":1566,"StructureSqFt":""},"geometry":{"type":"Point","coordinates":[-87.718112,41.8915991]}},{"type":"Feature","properties":{"ParcelNumber":"16-11-124-013-0000","Street":"535 N LAWNDALE AVE","City":"CHICAGO","State":"IL","PostalCode":60624,"Full Address":"535 N LAWNDALE AVE CHICAGO IL 60624 ","PropertyClassification":"Residential Land","Ward":27,"MinimumOfferAmount":10000,"Neighborhood":"Humboldt Park","ParcelSqFt":3125,"StructureSqFt":""},"geometry":{"type":"Point","coordinates":[-87.7183584,41.8909923]}},{"type":"Feature","properties":{"ParcelNumber":"16-11-124-017-0000","Street":"523 N LAWNDALE AVE","City":"CHICAGO","State":"IL","PostalCode":60624,"Full Address":"523 N LAWNDALE AVE CHICAGO IL 60624 ","PropertyClassification":"Residential Land","Ward":27,"MinimumOfferAmount":10000,"Neighborhood":"Humboldt Park","ParcelSqFt":3000,"StructureSqFt":""},"geometry":{"type":"Point","coordinates":[-87.7183584,41.8906822]}},{"type":"Feature","properties":{"ParcelNumber":"16-11-126-005-0000","Street":"454 N HARDING AVE","City":"CHICAGO","State":"IL","PostalCode":60624,"Full Address":"454 N HARDING AVE CHICAGO IL 60624 ","PropertyClassification":"Residential Land","Ward":37,"MinimumOfferAmount":7500,"Neighborhood":"Humboldt Park","ParcelSqFt":3125,"StructureSqFt":""},"geometry":{"type":"Point","coordinates":[-87.725025,41.88959]}},{"type":"Feature","properties":{"ParcelNumber":"16-11-126-006-0000","Street":"452 N HARDING AVE","City":"CHICAGO","State":"IL","PostalCode":60624,"Full Address":"452 N HARDING AVE CHICAGO IL 60624 ","PropertyClassification":"Residential Land","Ward":37,"MinimumOfferAmount":7500,"Neighborhood":"Humboldt Park","ParcelSqFt":3125,"StructureSqFt":""},"geometry":{"type":"Point","coordinates":[-87.725021,41.889452]}},{"type":"Feature","properties":{"ParcelNumber":"16-11-127-001-0000","Street":"459 N HARDING AVE","City":"CHICAGO","State":"IL","PostalCode":60624,"Full Address":"459 N HARDING AVE CHICAGO IL 60624 ","PropertyClassification":"Residential Land","Ward":37,"MinimumOfferAmount":7500,"Neighborhood":"Humboldt Park","ParcelSqFt":3125,"StructureSqFt":""},"geometry":{"type":"Point","coordinates":[-87.724332,41.889738]}},{"type":"Feature","properties":{"ParcelNumber":"16-11-127-002-0000","Street":"457 N HARDING AVE","City":"CHICAGO","State":"IL","PostalCode":60624,"Full Address":"457 N HARDING AVE CHICAGO IL 60624 ","PropertyClassification":"Residential Land","Ward":37,"MinimumOfferAmount":7500,"Neighborhood":"Humboldt Park","ParcelSqFt":3125,"StructureSqFt":""},"geometry":{"type":"Point","coordinates":[-87.7244686,41.8896937]}},{"type":"Feature","properties":{"ParcelNumber":"16-11-127-009-0000","Street":"441 N HARDING AVE","City":"CHICAGO","State":"IL","PostalCode":60624,"Full Address":"441 N HARDING AVE CHICAGO IL 60624 ","PropertyClassification":"Residential Land","Ward":37,"MinimumOfferAmount":7500,"Neighborhood":"Humboldt Park","ParcelSqFt":2082,"StructureSqFt":""},"geometry":{"type":"Point","coordinates":[-87.724316,41.889221]}},{"type":"Feature","properties":{"ParcelNumber":"16-11-127-010-0000","Street":"439 N HARDING AVE","City":"CHICAGO","State":"IL","PostalCode":60624,"Full Address":"439 N HARDING AVE CHICAGO IL 60624 ","PropertyClassification":"Residential Land","Ward":37,"MinimumOfferAmount":7500,"Neighborhood":"Humboldt Park","ParcelSqFt":2083,"StructureSqFt":""},"geometry":{"type":"Point","coordinates":[-87.724315,41.889175]}},{"type":"Feature","properties":{"ParcelNumber":"16-11-127-042-0000","Street":"418 N SPRINGFIELD AVE","City":"CHICAGO","State":"IL","PostalCode":60624,"Full Address":"418 N SPRINGFIELD AVE CHICAGO IL 60624 ","PropertyClassification":"Residential Land","Ward":37,"MinimumOfferAmount":18000,"Neighborhood":"Humboldt Park","ParcelSqFt":6000,"StructureSqFt":""},"geometry":{"type":"Point","coordinates":[-87.7237985,41.888619]}},{"type":"Feature","properties":{"ParcelNumber":"16-11-128-016-0000","Street":"419 N SPRINGFIELD AVE","City":"CHICAGO","State":"IL","PostalCode":60624,"Full Address":"419 N SPRINGFIELD AVE CHICAGO IL 60624 ","PropertyClassification":"Residential Land","Ward":37,"MinimumOfferAmount":10000,"Neighborhood":"Humboldt Park","ParcelSqFt":3024,"StructureSqFt":""},"geometry":{"type":"Point","coordinates":[-87.7232171,41.8886499]}},{"type":"Feature","properties":{"ParcelNumber":"16-11-128-028-0000","Street":"448 N AVERS AVE","City":"CHICAGO","State":"IL","PostalCode":60624,"Full Address":"448 N AVERS AVE CHICAGO IL 60624 ","PropertyClassification":"Residential Land","Ward":37,"MinimumOfferAmount":12500,"Neighborhood":"Humboldt Park","ParcelSqFt":3125,"StructureSqFt":""},"geometry":{"type":"Point","coordinates":[-87.722587,41.889482]}},{"type":"Feature","properties":{"ParcelNumber":"16-11-128-031-0000","Street":"440 N AVERS AVE","City":"CHICAGO","State":"IL","PostalCode":60624,"Full Address":"440 N AVERS AVE CHICAGO IL 60624 ","PropertyClassification":"Residential Land","Ward":37,"MinimumOfferAmount":12500,"Neighborhood":"Humboldt Park","ParcelSqFt":3125,"StructureSqFt":""},"geometry":{"type":"Point","coordinates":[-87.7224462,41.8892758]}},{"type":"Feature","properties":{"ParcelNumber":"16-11-128-032-0000","Street":"438 N AVERS AVE","City":"CHICAGO","State":"IL","PostalCode":60624,"Full Address":"438 N AVERS AVE CHICAGO IL 60624 ","PropertyClassification":"Residential Land","Ward":37,"MinimumOfferAmount":12500,"Neighborhood":"Humboldt Park","ParcelSqFt":3123.89,"StructureSqFt":""},"geometry":{"type":"Point","coordinates":[-87.7225799,41.889206]}},{"type":"Feature","properties":{"ParcelNumber":"16-11-128-050-0000","Street":"401 N SPRINGFIELD AVE","City":"CHICAGO","State":"IL","PostalCode":60624,"Full Address":"401 N SPRINGFIELD AVE CHICAGO IL 60624 ","PropertyClassification":"Residential Land","Ward":37,"MinimumOfferAmount":28000,"Neighborhood":"Humboldt Park","ParcelSqFt":12379,"StructureSqFt":""},"geometry":{"type":"Point","coordinates":[-87.723076,41.888295]}},{"type":"Feature","properties":{"ParcelNumber":"16-11-129-009-0000","Street":"439 N AVERS AVE","City":"CHICAGO","State":"IL","PostalCode":60624,"Full Address":"439 N AVERS AVE CHICAGO IL 60624 ","PropertyClassification":"Residential Land","Ward":37,"MinimumOfferAmount":12000,"Neighborhood":"Humboldt Park","ParcelSqFt":2915,"StructureSqFt":""},"geometry":{"type":"Point","coordinates":[-87.7218926,41.8892003]}},{"type":"Feature","properties":{"ParcelNumber":"16-11-129-016-0000","Street":"419 N AVERS AVE","City":"CHICAGO","State":"IL","PostalCode":60624,"Full Address":"419 N AVERS AVE CHICAGO IL 60624 ","PropertyClassification":"Residential Land","Ward":37,"MinimumOfferAmount":12000,"Neighborhood":"Humboldt Park","ParcelSqFt":2915,"StructureSqFt":""},"geometry":{"type":"Point","coordinates":[-87.7219371,41.888621]}},{"type":"Feature","properties":{"ParcelNumber":"16-11-131-027-0000","Street":"458 N LAWNDALE AVE","City":"CHICAGO","State":"IL","PostalCode":60624,"Full Address":"458 N LAWNDALE AVE CHICAGO IL 60624 ","PropertyClassification":"Residential Land","Ward":27,"MinimumOfferAmount":13000,"Neighborhood":"Humboldt Park","ParcelSqFt":3750,"StructureSqFt":""},"geometry":{"type":"Point","coordinates":[-87.71893,41.889789]}},{"type":"Feature","properties":{"marker-color":"#7e7e7e","marker-size":"medium","marker-symbol":"","ParcelNumber":"16-11-131-044-0000","Street":"414 N LAWNDALE AVE","City":"CHICAGO","State":"IL","PostalCode":60624,"Full Address":"414 N LAWNDALE AVE CHICAGO IL 60624 ","PropertyClassification":"Residential Land","Ward":27,"MinimumOfferAmount":10000,"Neighborhood":"Humboldt Park","ParcelSqFt":3125,"StructureSqFt":""},"geometry":{"type":"Point","coordinates":[-87.7189095,41.8886293]}},{"type":"Feature","properties":{"ParcelNumber":"16-11-200-029-0000","Street":"722 N DRAKE AVE","City":"CHICAGO","State":"IL","PostalCode":60624,"Full Address":"722 N DRAKE AVE CHICAGO IL 60624 ","PropertyClassification":"Residential Land","Ward":27,"MinimumOfferAmount":7500,"Neighborhood":"Humboldt Park","ParcelSqFt":4575,"StructureSqFt":""},"geometry":{"type":"Point","coordinates":[-87.7153414,41.8943855]}},{"type":"Feature","properties":{"ParcelNumber":"16-11-204-021-0000","Street":"3354 W HURON ST","City":"CHICAGO","State":"IL","PostalCode":60624,"Full Address":"3354 W HURON ST CHICAGO IL 60624 ","PropertyClassification":"Residential Land","Ward":27,"MinimumOfferAmount":18000,"Neighborhood":"Humboldt Park","ParcelSqFt":4250,"StructureSqFt":""},"geometry":{"type":"Point","coordinates":[-87.7110423,41.893901]}},{"type":"Feature","properties":{"ParcelNumber":"16-11-209-031-0000","Street":"620 N SAINT LOUIS AVE","City":"CHICAGO","State":"IL","PostalCode":60624,"Full Address":"620 N SAINT LOUIS AVE CHICAGO IL 60624 ","PropertyClassification":"Residential Land","Ward":27,"MinimumOfferAmount":24500,"Neighborhood":"Humboldt Park","ParcelSqFt":6000,"StructureSqFt":""},"geometry":{"type":"Point","coordinates":[-87.7141112,41.8925262]}},{"type":"Feature","properties":{"ParcelNumber":"16-11-213-023-0000","Street":"3318 W OHIO ST","City":"CHICAGO","State":"IL","PostalCode":60624,"Full Address":"3318 W OHIO ST CHICAGO IL 60624 ","PropertyClassification":"Residential Land","Ward":27,"MinimumOfferAmount":9800,"Neighborhood":"Humboldt Park","ParcelSqFt":3000,"StructureSqFt":""},"geometry":{"type":"Point","coordinates":[-87.7096509,41.892138]}},{"type":"Feature","properties":{"ParcelNumber":"16-11-217-010-0000","Street":"523 N DRAKE AVE","City":"CHICAGO","State":"IL","PostalCode":60624,"Full Address":"523 N DRAKE AVE CHICAGO IL 60624 ","PropertyClassification":"Residential Land","Ward":27,"MinimumOfferAmount":13000,"Neighborhood":"Humboldt Park","ParcelSqFt":4000,"StructureSqFt":""},"geometry":{"type":"Point","coordinates":[-87.7152234,41.892685]}},{"type":"Feature","properties":{"ParcelNumber":"16-11-218-017-0000","Street":"538 N TRUMBULL AVE","City":"CHICAGO","State":"IL","PostalCode":60624,"Full Address":"538 N TRUMBULL AVE CHICAGO IL 60624 ","PropertyClassification":"Residential Land","Ward":27,"MinimumOfferAmount":7500,"Neighborhood":"Humboldt Park","ParcelSqFt":3000,"StructureSqFt":""},"geometry":{"type":"Point","coordinates":[-87.7128573,41.8914683]}},{"type":"Feature","properties":{"ParcelNumber":"16-11-219-001-0000","Street":"549 N TRUMBULL AVE","City":"CHICAGO","State":"IL","PostalCode":60624,"Full Address":"549 N TRUMBULL AVE CHICAGO IL 60624 ","PropertyClassification":"Residential Land","Ward":27,"MinimumOfferAmount":7500,"Neighborhood":"Humboldt Park","ParcelSqFt":3013,"StructureSqFt":""},"geometry":{"type":"Point","coordinates":[-87.7121716,41.8917017]}},{"type":"Feature","properties":{"ParcelNumber":"16-11-222-002-0000","Street":"543 N SPAULDING AVE","City":"CHICAGO","State":"IL","PostalCode":60624,"Full Address":"543 N SPAULDING AVE CHICAGO IL 60624 ","PropertyClassification":"Commercial Land","Ward":27,"MinimumOfferAmount":15700,"Neighborhood":"Humboldt Park","ParcelSqFt":3125,"StructureSqFt":""},"geometry":{"type":"Point","coordinates":[-87.7085204,41.8916397]}},{"type":"Feature","properties":{"ParcelNumber":"16-02-301-008-0000","Street":"3907 W DIVISION ST","City":"CHICAGO","State":"IL","PostalCode":60651,"Full Address":"3907 W DIVISION ST CHICAGO IL 60651 ","PropertyClassification":"Commercial Land","Ward":37,"MinimumOfferAmount":22000,"Neighborhood":"Humboldt Park","ParcelSqFt":3125,"StructureSqFt":""},"geometry":{"type":"Point","coordinates":[-87.724259,41.902424]}},{"type":"Feature","properties":{"ParcelNumber":"16-11-102-008-0000","Street":"737 N SPRINGFIELD AVE","City":"CHICAGO","State":"IL","PostalCode":60624,"Full Address":"737 N SPRINGFIELD AVE CHICAGO IL 60624 ","PropertyClassification":"Residential Land","Ward":37,"MinimumOfferAmount":15000,"Neighborhood":"Humboldt Park","ParcelSqFt":4125,"StructureSqFt":""},"geometry":{"type":"Point","coordinates":[-87.7232557,41.8946904]}},{"type":"Feature","properties":{"ParcelNumber":"16-02-308-021-0000","Street":"1107 N MONTICELLO AVE","City":"CHICAGO","State":"IL","PostalCode":60651,"Full Address":"1107 N MONTICELLO AVE CHICAGO IL 60651 ","PropertyClassification":"Residential Land","Ward":27,"MinimumOfferAmount":15000,"Neighborhood":"Humboldt Park","ParcelSqFt":3125,"StructureSqFt":""},"geometry":{"type":"Point","coordinates":[-87.7173728,41.9011562]}},{"type":"Feature","properties":{"ParcelNumber":"16-02-310-026-0000","Street":"1042 N SPRINGFIELD AVE","City":"CHICAGO","State":"IL","PostalCode":60651,"Full Address":"1042 N SPRINGFIELD AVE CHICAGO IL 60651 ","PropertyClassification":"Residential Land","Ward":37,"MinimumOfferAmount":15000,"Neighborhood":"Humboldt Park","ParcelSqFt":3125,"StructureSqFt":""},"geometry":{"type":"Point","coordinates":[-87.7240236,41.9003411]}},{"type":"Feature","properties":{"ParcelNumber":"16-11-118-006-0000","Street":"545 N PULASKI RD","City":"CHICAGO","State":"IL","PostalCode":60624,"Full Address":"545 N PULASKI RD CHICAGO IL 60624 ","PropertyClassification":"Residential Land","Ward":37,"MinimumOfferAmount":15000,"Neighborhood":"Humboldt Park","ParcelSqFt":3125,"StructureSqFt":""},"geometry":{"type":"Point","coordinates":[-87.7255953,41.8912564]}},{"type":"Feature","properties":{"ParcelNumber":"16-11-119-028-0000","Street":"544 N SPRINGFIELD AVE","City":"CHICAGO","State":"IL","PostalCode":60624,"Full Address":"544 N SPRINGFIELD AVE CHICAGO IL 60624 ","PropertyClassification":"Residential Land","Ward":37,"MinimumOfferAmount":10000,"Neighborhood":"Humboldt Park","ParcelSqFt":3125,"StructureSqFt":""},"geometry":{"type":"Point","coordinates":[-87.7238754,41.8912795]}},{"type":"Feature","properties":{"ParcelNumber":"16-11-127-037-0000","Street":"432 N SPRINGFIELD AVE","City":"CHICAGO","State":"IL","PostalCode":60624,"Full Address":"432 N SPRINGFIELD AVE CHICAGO IL 60624 ","PropertyClassification":"Residential Land","Ward":37,"MinimumOfferAmount":10000,"Neighborhood":"Humboldt Park","ParcelSqFt":3125,"StructureSqFt":""},"geometry":{"type":"Point","coordinates":[-87.7237613,41.8890013]}},{"type":"Feature","properties":{"ParcelNumber":"16-11-222-003-0000","Street":"541 N SPAULDING AVE","City":"CHICAGO","State":"IL","PostalCode":60624,"Full Address":"541 N SPAULDING AVE CHICAGO IL 60624 ","PropertyClassification":"Residential Land","Ward":27,"MinimumOfferAmount":10000,"Neighborhood":"Humboldt Park","ParcelSqFt":3125,"StructureSqFt":""},"geometry":{"type":"Point","coordinates":[-87.7085204,41.8914972]}},{"type":"Feature","properties":{"ParcelNumber":"16-02-315-017-0000","Street":"1007 N LAWNDALE AVE","City":"CHICAGO","State":"IL","PostalCode":60651,"Full Address":"1007 N LAWNDALE AVE CHICAGO IL 60651 ","PropertyClassification":"Residential Land","Ward":27,"MinimumOfferAmount":15000,"Neighborhood":"Humboldt Park","ParcelSqFt":3125,"StructureSqFt":""},"geometry":{"type":"Point","coordinates":[-87.7185663,41.8993696]}},{"type":"Feature","properties":{"ParcelNumber":"16-11-202-032-0000","Street":"728 N TRUMBULL AVE","City":"CHICAGO","State":"IL","PostalCode":60624,"Full Address":"728 N TRUMBULL AVE CHICAGO IL 60624 ","PropertyClassification":"Residential Land","Ward":27,"MinimumOfferAmount":7500,"Neighborhood":"Humboldt Park","ParcelSqFt":3000,"StructureSqFt":""},"geometry":{"type":"Point","coordinates":[-87.7128756,41.8945998]}},{"type":"Feature","properties":{"ParcelNumber":"16-02-322-037-0000","Street":"922 N LAWNDALE AVE","City":"CHICAGO","State":"IL","PostalCode":60651,"Full Address":"922 N LAWNDALE AVE CHICAGO IL 60651 ","PropertyClassification":"Residential Land","Ward":27,"MinimumOfferAmount":15000,"Neighborhood":"Humboldt Park","ParcelSqFt":3125,"StructureSqFt":""},"geometry":{"type":"Point","coordinates":[-87.719117,41.8979983]}},{"type":"Feature","properties":{"ParcelNumber":"16-02-326-036-0000","Street":"3920 W CHICAGO AVE","City":"CHICAGO","State":"IL","PostalCode":60651,"Full Address":"3920 W CHICAGO AVE CHICAGO IL 60651 ","PropertyClassification":"Residential Land","Ward":37,"MinimumOfferAmount":22000,"Neighborhood":"Humboldt Park","ParcelSqFt":3000,"StructureSqFt":""},"geometry":{"type":"Point","coordinates":[-87.724518,41.8956779]}},{"type":"Feature","properties":{"ParcelNumber":"16-11-129-010-0000","Street":"437 N AVERS AVE","City":"CHICAGO","State":"IL","PostalCode":60624,"Full Address":"437 N AVERS AVE CHICAGO IL 60624 ","PropertyClassification":"Residential Land","Ward":37,"MinimumOfferAmount":5500,"Neighborhood":"Humboldt Park","ParcelSqFt":2915,"StructureSqFt":""},"geometry":{"type":"Point","coordinates":[-87.72194,41.8891683]}},{"type":"Feature","properties":{"ParcelNumber":"16-02-419-013-0000","Street":"825 N CENTRAL PARK AVE","City":"CHICAGO","State":"IL","PostalCode":60651,"Full Address":"825 N CENTRAL PARK AVE CHICAGO IL 60651 ","PropertyClassification":"Residential Land","Ward":27,"MinimumOfferAmount":18500,"Neighborhood":"Humboldt Park","ParcelSqFt":3500,"StructureSqFt":""},"geometry":{"type":"Point","coordinates":[-87.7160494,41.8962567]}},{"type":"Feature","properties":{"ParcelNumber":"16-02-314-025-0000","Street":"1048 N LAWNDALE AVE","City":"CHICAGO","State":"IL","PostalCode":60651,"Full Address":"1048 N LAWNDALE AVE CHICAGO IL 60651 ","PropertyClassification":"Residential Land","Ward":27,"MinimumOfferAmount":18500,"Neighborhood":"Humboldt Park","ParcelSqFt":4687,"StructureSqFt":""},"geometry":{"type":"Point","coordinates":[-87.7191665,41.9005042]}},{"type":"Feature","properties":{"ParcelNumber":"16-02-318-049-0000","Street":"943 N HARDING AVE","City":"CHICAGO","State":"IL","PostalCode":60651,"Full Address":"943 N HARDING AVE CHICAGO IL 60651 ","PropertyClassification":"Residential Land","Ward":37,"MinimumOfferAmount":8500,"Neighborhood":"Humboldt Park","ParcelSqFt":3125,"StructureSqFt":""},"geometry":{"type":"Point","coordinates":[-87.7246354,41.8985183]}},{"type":"Feature","properties":{"ParcelNumber":"16-02-327-003-0000","Street":"851 N SPRINGFIELD AVE","City":"CHICAGO","State":"IL","PostalCode":60651,"Full Address":"851 N SPRINGFIELD AVE CHICAGO IL 60651 ","PropertyClassification":"Residential Land","Ward":37,"MinimumOfferAmount":18500,"Neighborhood":"Humboldt Park","ParcelSqFt":3750,"StructureSqFt":""},"geometry":{"type":"Point","coordinates":[-87.7234175,41.8969092]}},{"type":"Feature","properties":{"ParcelNumber":"16-03-408-037-0000","Street":"4306 W CORTEZ ST","City":"CHICAGO","State":"IL","PostalCode":60651,"Full Address":"4306 W CORTEZ ST CHICAGO IL 60651 ","PropertyClassification":"Residential Land","Ward":37,"MinimumOfferAmount":15000,"Neighborhood":"Humboldt Park","ParcelSqFt":4199,"StructureSqFt":""},"geometry":{"type":"Point","coordinates":[-87.7340285,41.8999844]}},{"type":"Feature","properties":{"ParcelNumber":"16-11-124-003-0000","Street":"3655 W OHIO ST","City":"CHICAGO","State":"IL","PostalCode":60624,"Full Address":"3655 W OHIO ST CHICAGO IL 60624 ","PropertyClassification":"Residential Land","Ward":27,"MinimumOfferAmount":5000,"Neighborhood":"Humboldt Park","ParcelSqFt":1566,"StructureSqFt":""},"geometry":{"type":"Point","coordinates":[-87.7183563,41.8915727]}},{"type":"Feature","properties":{"ParcelNumber":"16-11-124-004-0000","Street":"3653 W OHIO ST","City":"CHICAGO","State":"IL","PostalCode":60624,"Full Address":"3653 W OHIO ST CHICAGO IL 60624 ","PropertyClassification":"Residential Land","Ward":27,"MinimumOfferAmount":5000,"Neighborhood":"Humboldt Park","ParcelSqFt":1566,"StructureSqFt":""},"geometry":{"type":"Point","coordinates":[-87.7182793,41.8915737]}},{"type":"Feature","properties":{"ParcelNumber":"16-11-127-049-0000","Street":"449 N HARDING AVE","City":"CHICAGO","State":"IL","PostalCode":60624,"Full Address":"449 N HARDING AVE CHICAGO IL 60624 ","PropertyClassification":"Residential Structure","Ward":37,"MinimumOfferAmount":20500,"Neighborhood":"Humboldt Park","ParcelSqFt":2010,"StructureSqFt":1532},"geometry":{"type":"Point","coordinates":[-87.7243901,41.8893963]}},{"type":"Feature","properties":{"ParcelNumber":"16-11-201-023-0000","Street":"740 N SAINT LOUIS AVE","City":"CHICAGO","State":"IL","PostalCode":60624,"Full Address":"740 N SAINT LOUIS AVE CHICAGO IL 60624 ","PropertyClassification":"Residential Land","Ward":27,"MinimumOfferAmount":7500,"Neighborhood":"Humboldt Park","ParcelSqFt":3125,"StructureSqFt":""},"geometry":{"type":"Point","coordinates":[-87.714194,41.894898]}},{"type":"Feature","properties":{"ParcelNumber":"16-11-202-033-0000","Street":"724 N TRUMBULL AVE","City":"CHICAGO","State":"IL","PostalCode":60624,"Full Address":"724 N TRUMBULL AVE CHICAGO IL 60624 ","PropertyClassification":"Residential Land","Ward":27,"MinimumOfferAmount":15000,"Neighborhood":"Humboldt Park","ParcelSqFt":6000,"StructureSqFt":""},"geometry":{"type":"Point","coordinates":[-87.7129044,41.8945132]}},{"type":"Feature","properties":{"ParcelNumber":"16-11-210-002-0000","Street":"653 N SAINT LOUIS AVE","City":"CHICAGO","State":"IL","PostalCode":60624,"Full Address":"653 N SAINT LOUIS AVE CHICAGO IL 60624 ","PropertyClassification":"Residential Land","Ward":27,"MinimumOfferAmount":18000,"Neighborhood":"Humboldt Park","ParcelSqFt":3750,"StructureSqFt":""},"geometry":{"type":"Point","coordinates":[-87.7135327,41.8934155]}},{"type":"Feature","properties":{"ParcelNumber":"16-11-212-013-0000","Street":"621 N HOMAN AVE","City":"CHICAGO","State":"IL","PostalCode":60624,"Full Address":"621 N HOMAN AVE CHICAGO IL 60624 ","PropertyClassification":"Residential Land","Ward":27,"MinimumOfferAmount":13000,"Neighborhood":"Humboldt Park","ParcelSqFt":4536,"StructureSqFt":""},"geometry":{"type":"Point","coordinates":[-87.7110297,41.8925579]}},{"type":"Feature","properties":{"ParcelNumber":"16-11-213-010-0000","Street":"635 N CHRISTIANA AVE","City":"CHICAGO","State":"IL","PostalCode":60624,"Full Address":"635 N CHRISTIANA AVE CHICAGO IL 60624 ","PropertyClassification":"Residential Land","Ward":27,"MinimumOfferAmount":10000,"Neighborhood":"Humboldt Park","ParcelSqFt":3150,"StructureSqFt":""},"geometry":{"type":"Point","coordinates":[-87.709867,41.8929284]}},{"type":"Feature","properties":{"ParcelNumber":"16-11-222-004-0000","Street":"539 N SPAULDING AVE","City":"CHICAGO","State":"IL","PostalCode":60624,"Full Address":"539 N SPAULDING AVE CHICAGO IL 60624 ","PropertyClassification":"Residential Land","Ward":27,"MinimumOfferAmount":10000,"Neighborhood":"Humboldt Park","ParcelSqFt":3125,"StructureSqFt":""},"geometry":{"type":"Point","coordinates":[-87.7085833,41.8914769]}},{"type":"Feature","properties":{"ParcelNumber":"16-11-103-033-0000","Street":"3824 W HURON ST","City":"CHICAGO","State":"IL","PostalCode":"60624-1131","Full Address":"3824 W HURON ST CHICAGO IL 60624-1131 ","PropertyClassification":"Residential Land","Ward":27,"MinimumOfferAmount":22000,"Neighborhood":"Humboldt Park","ParcelSqFt":5593,"StructureSqFt":""},"geometry":{"type":"Point","coordinates":[-87.7221433,41.8938748]}},{"type":"Feature","properties":{"ParcelNumber":"16-11-201-040-0000","Street":"3502 W HURON ST","City":"CHICAGO","State":"IL","PostalCode":"60624-1343","Full Address":"3502 W HURON ST CHICAGO IL 60624-1343 ","PropertyClassification":"Residential Land","Ward":27,"MinimumOfferAmount":18500,"Neighborhood":"Humboldt Park","ParcelSqFt":4125,"StructureSqFt":""},"geometry":{"type":"Point","coordinates":[-87.7140857,41.8938386]}},{"type":"Feature","properties":{"ParcelNumber":"16-02-301-024-0000","Street":"1107 N HARDING AVE","City":"CHICAGO","State":"IL","PostalCode":"60651-3738","Full Address":"1107 N HARDING AVE CHICAGO IL 60651-3738 ","PropertyClassification":"Residential Land","Ward":37,"MinimumOfferAmount":12000,"Neighborhood":"Humboldt Park","ParcelSqFt":3125,"StructureSqFt":""},"geometry":{"type":"Point","coordinates":[-87.7246992,41.9011576]}},{"type":"Feature","properties":{"ParcelNumber":"16-02-320-019-0000","Street":"952 N HAMLIN AVE","City":"CHICAGO","State":"IL","PostalCode":"60651-3826","Full Address":"952 N HAMLIN AVE CHICAGO IL 60651-3826 ","PropertyClassification":"Residential Land","Ward":27,"MinimumOfferAmount":15000,"Neighborhood":"Humboldt Park","ParcelSqFt":3125,"StructureSqFt":""},"geometry":{"type":"Point","coordinates":[-87.7215691,41.8988568]}},{"type":"Feature","properties":{"ParcelNumber":"16-02-326-022-0000","Street":"850 N SPRINGFIELD AVE","City":"CHICAGO","State":"IL","PostalCode":"60651-3727","Full Address":"850 N SPRINGFIELD AVE CHICAGO IL 60651-3727 ","PropertyClassification":"Residential Land","Ward":37,"MinimumOfferAmount":15000,"Neighborhood":"Humboldt Park","ParcelSqFt":3125,"StructureSqFt":""},"geometry":{"type":"Point","coordinates":[-87.7239166,41.8968944]}},{"type":"Feature","properties":{"ParcelNumber":"16-02-405-007-0000","Street":"1041 N DRAKE AVE","City":"CHICAGO","State":"IL","PostalCode":"60651-4013","Full Address":"1041 N DRAKE AVE CHICAGO IL 60651-4013 ","PropertyClassification":"Residential Land","Ward":27,"MinimumOfferAmount":18500,"Neighborhood":"Humboldt Park","ParcelSqFt":3753,"StructureSqFt":""},"geometry":{"type":"Point","coordinates":[-87.7154124,41.9003889]}},{"type":"Feature","properties":{"ParcelNumber":"16-03-214-012-0000","Street":"1419 N KOLIN AVE","City":"CHICAGO","State":"IL","PostalCode":"60651-1740","Full Address":"1419 N KOLIN AVE CHICAGO IL 60651-1740 ","PropertyClassification":"Residential Land","Ward":26,"MinimumOfferAmount":10000,"Neighborhood":"Humboldt Park","ParcelSqFt":3150,"StructureSqFt":""},"geometry":{"type":"Point","coordinates":[-87.7347494,41.9068376]}},{"type":"Feature","properties":{"ParcelNumber":"16-03-407-035-0000","Street":"1114 N PULASKI RD","City":"CHICAGO","State":"IL","PostalCode":"60651-3614","Full Address":"1114 N PULASKI RD CHICAGO IL 60651-3614 ","PropertyClassification":"Residential Land","Ward":37,"MinimumOfferAmount":24000,"Neighborhood":"Humboldt Park","ParcelSqFt":3780.24,"StructureSqFt":""},"geometry":{"type":"Point","coordinates":[-87.7265447,41.9014349]}},{"type":"Feature","properties":{"ParcelNumber":"16-03-407-040-0000","Street":"1100 N PULASKI RD","City":"CHICAGO","State":"IL","PostalCode":"60651-3614","Full Address":"1100 N PULASKI RD CHICAGO IL 60651-3614 ","PropertyClassification":"Residential Land","Ward":37,"MinimumOfferAmount":22000,"Neighborhood":"Humboldt Park","ParcelSqFt":3280,"StructureSqFt":""},"geometry":{"type":"Point","coordinates":[-87.7265253,41.9009649]}},{"type":"Feature","properties":{"ParcelNumber":"16-11-112-033-0000","Street":"622 N AVERS AVE","City":"CHICAGO","State":"IL","PostalCode":"60624-1115","Full Address":"622 N AVERS AVE CHICAGO IL 60624-1115 ","PropertyClassification":"Residential Land","Ward":37,"MinimumOfferAmount":12500,"Neighborhood":"Humboldt Park","ParcelSqFt":3024,"StructureSqFt":""},"geometry":{"type":"Point","coordinates":[-87.722666,41.892493]}},{"type":"Feature","properties":{"ParcelNumber":"16-11-118-001-0000","Street":"3959 W OHIO ST","City":"CHICAGO","State":"IL","PostalCode":"60624-1048","Full Address":"3959 W OHIO ST CHICAGO IL 60624-1048 ","PropertyClassification":"Residential Land","Ward":37,"MinimumOfferAmount":"al","Neighborhood":"Humboldt Park","ParcelSqFt":2900.26,"StructureSqFt":""},"geometry":{"type":"Point","coordinates":[-87.725712,41.8914527]}},{"type":"Feature","properties":{"ParcelNumber":"16-11-119-010-0000","Street":"537 N HARDING AVE","City":"CHICAGO","State":"IL","PostalCode":"60624-1072","Full Address":"537 N HARDING AVE CHICAGO IL 60624-1072 ","PropertyClassification":"Residential Land","Ward":37,"MinimumOfferAmount":7500,"Neighborhood":"Humboldt Park","ParcelSqFt":3150,"StructureSqFt":""},"geometry":{"type":"Point","coordinates":[-87.7244085,41.8909654]}},{"type":"Feature","properties":{"ParcelNumber":"16-11-120-006-0000","Street":"533 N SPRINGFIELD AVE","City":"CHICAGO","State":"IL","PostalCode":"60624-1160","Full Address":"533 N SPRINGFIELD AVE CHICAGO IL 60624-1160 ","PropertyClassification":"Residential Land","Ward":37,"MinimumOfferAmount":18000,"Neighborhood":"Humboldt Park","ParcelSqFt":6300,"StructureSqFt":""},"geometry":{"type":"Point","coordinates":[-87.7232535,41.8909418]}},{"type":"Feature","properties":{"ParcelNumber":"16-11-211-003-0000","Street":"647 N TRUMBULL AVE","City":"CHICAGO","State":"IL","PostalCode":"60624-1456","Full Address":"647 N TRUMBULL AVE CHICAGO IL 60624-1456 ","PropertyClassification":"Residential Land","Ward":27,"MinimumOfferAmount":7500,"Neighborhood":"Humboldt Park","ParcelSqFt":3034,"StructureSqFt":""},"geometry":{"type":"Point","coordinates":[-87.7123619,41.8933641]}},{"type":"Feature","properties":{"ParcelNumber":"16-11-214-002-0000","Street":"653 N SPAULDING AVE","City":"CHICAGO","State":"IL","PostalCode":"60624-1539","Full Address":"653 N SPAULDING AVE CHICAGO IL 60624-1539 ","PropertyClassification":"Residential Land","Ward":27,"MinimumOfferAmount":8500,"Neighborhood":"Humboldt Park","ParcelSqFt":4165,"StructureSqFt":""},"geometry":{"type":"Point","coordinates":[-87.7086794,41.8934488]}},{"type":"Feature","properties":{"ParcelNumber":"16-11-408-052-0000","Street":"3332 W WALNUT ST","City":"CHICAGO","State":"IL","PostalCode":60624,"Full Address":"3332 W WALNUT ST CHICAGO IL 60624 ","PropertyClassification":"Residential Land","Ward":28,"MinimumOfferAmount":15000,"Neighborhood":"East Garfield Park","ParcelSqFt":3125,"StructureSqFt":""},"geometry":{"type":"Point","coordinates":[-87.7101132,41.8854841]}},{"type":"Feature","properties":{"ParcelNumber":"16-11-408-053-0000","Street":"3328 W WALNUT ST","City":"CHICAGO","State":"IL","PostalCode":"60624-2028","Full Address":"3328 W WALNUT ST CHICAGO IL 60624-2028 ","PropertyClassification":"Residential Land","Ward":28,"MinimumOfferAmount":18000,"Neighborhood":"East Garfield Park","ParcelSqFt":4034.5008,"StructureSqFt":""},"geometry":{"type":"Point","coordinates":[-87.7098542,41.8856082]}},{"type":"Feature","properties":{"ParcelNumber":"16-11-409-024-0000","Street":"3534 W LAKE ST","City":"CHICAGO","State":"IL","PostalCode":60624,"Full Address":"3534 W LAKE ST CHICAGO IL 60624 ","PropertyClassification":"Industrial Land","Ward":28,"MinimumOfferAmount":15000,"Neighborhood":"East Garfield Park","ParcelSqFt":2314,"StructureSqFt":""},"geometry":{"type":"Point","coordinates":[-87.7149911,41.8850915]}},{"type":"Feature","properties":{"ParcelNumber":"16-11-410-009-0000","Street":"3439 W WALNUT ST","City":"CHICAGO","State":"IL","PostalCode":60624,"Full Address":"3439 W WALNUT ST CHICAGO IL 60624 ","PropertyClassification":"Residential Land","Ward":28,"MinimumOfferAmount":8500,"Neighborhood":"East Garfield Park","ParcelSqFt":2250,"StructureSqFt":""},"geometry":{"type":"Point","coordinates":[-87.7126465,41.8852659]}},{"type":"Feature","properties":{"ParcelNumber":"16-11-411-001-0000","Street":"3359 W WALNUT ST","City":"CHICAGO","State":"IL","PostalCode":60624,"Full Address":"3359 W WALNUT ST CHICAGO IL 60624 ","PropertyClassification":"Commercial Land","Ward":28,"MinimumOfferAmount":22000,"Neighborhood":"East Garfield Park","ParcelSqFt":3800,"StructureSqFt":""},"geometry":{"type":"Point","coordinates":[-87.7108514,41.885106]}},{"type":"Feature","properties":{"ParcelNumber":"16-11-411-013-0000","Street":"3331 W WALNUT ST","City":"CHICAGO","State":"IL","PostalCode":60624,"Full Address":"3331 W WALNUT ST CHICAGO IL 60624 ","PropertyClassification":"Residential Land","Ward":28,"MinimumOfferAmount":5500,"Neighborhood":"East Garfield Park","ParcelSqFt":2000,"StructureSqFt":""},"geometry":{"type":"Point","coordinates":[-87.7098872,41.8851186]}},{"type":"Feature","properties":{"ParcelNumber":"16-11-411-014-0000","Street":"3329 W WALNUT ST","City":"CHICAGO","State":"IL","PostalCode":"60624-2029","Full Address":"3329 W WALNUT ST CHICAGO IL 60624-2029 ","PropertyClassification":"Residential Land","Ward":28,"MinimumOfferAmount":5500,"Neighborhood":"East Garfield Park","ParcelSqFt":2000,"StructureSqFt":""},"geometry":{"type":"Point","coordinates":[-87.70987,41.8851159]}},{"type":"Feature","properties":{"ParcelNumber":"16-11-411-015-0000","Street":"3325 W WALNUT ST","City":"CHICAGO","State":"IL","PostalCode":60624,"Full Address":"3325 W WALNUT ST CHICAGO IL 60624 ","PropertyClassification":"Residential Land","Ward":28,"MinimumOfferAmount":5500,"Neighborhood":"East Garfield Park","ParcelSqFt":2400,"StructureSqFt":""},"geometry":{"type":"Point","coordinates":[-87.7096846,41.8851232]}},{"type":"Feature","properties":{"ParcelNumber":"16-11-411-055-0000","Street":"3201 W WALNUT ST","City":"CHICAGO","State":"IL","PostalCode":60624,"Full Address":"3201 W WALNUT ST CHICAGO IL 60624 ","PropertyClassification":"Commercial Land","Ward":28,"MinimumOfferAmount":22000,"Neighborhood":"East Garfield Park","ParcelSqFt":3576,"StructureSqFt":""},"geometry":{"type":"Point","coordinates":[-87.706391,41.885108]}},{"type":"Feature","properties":{"ParcelNumber":"16-13-101-019-0000","Street":"39 S ALBANY AVE","City":"CHICAGO","State":"IL","PostalCode":60612,"Full Address":"39 S ALBANY AVE CHICAGO IL 60612 ","PropertyClassification":"Residential Land","Ward":28,"MinimumOfferAmount":5500,"Neighborhood":"East Garfield Park","ParcelSqFt":2047,"StructureSqFt":""},"geometry":{"type":"Point","coordinates":[-87.7026795,41.8798372]}},{"type":"Feature","properties":{"ParcelNumber":"16-13-101-022-0000","Street":"12 S WHIPPLE ST","City":"CHICAGO","State":"IL","PostalCode":60612,"Full Address":"12 S WHIPPLE ST CHICAGO IL 60612 ","PropertyClassification":"Residential Land","Ward":28,"MinimumOfferAmount":8000,"Neighborhood":"East Garfield Park","ParcelSqFt":2136,"StructureSqFt":""},"geometry":{"type":"Point","coordinates":[-87.702291,41.880555]}},{"type":"Feature","properties":{"ParcelNumber":"16-13-101-023-0000","Street":"14 S WHIPPLE ST","City":"CHICAGO","State":"IL","PostalCode":60612,"Full Address":"14 S WHIPPLE ST CHICAGO IL 60612 ","PropertyClassification":"Residential Land","Ward":28,"MinimumOfferAmount":8000,"Neighborhood":"East Garfield Park","ParcelSqFt":2136,"StructureSqFt":""},"geometry":{"type":"Point","coordinates":[-87.7022889,41.880489]}},{"type":"Feature","properties":{"ParcelNumber":"16-13-101-033-0000","Street":"38 S WHIPPLE ST","City":"CHICAGO","State":"IL","PostalCode":60612,"Full Address":"38 S WHIPPLE ST CHICAGO IL 60612 ","PropertyClassification":"Residential Land","Ward":28,"MinimumOfferAmount":8500,"Neighborhood":"East Garfield Park","ParcelSqFt":2370,"StructureSqFt":""},"geometry":{"type":"Point","coordinates":[-87.7022448,41.8798494]}},{"type":"Feature","properties":{"ParcelNumber":"16-13-102-011-0000","Street":"17 S WHIPPLE ST","City":"CHICAGO","State":"IL","PostalCode":60612,"Full Address":"17 S WHIPPLE ST CHICAGO IL 60612 ","PropertyClassification":"Residential Land","Ward":28,"MinimumOfferAmount":7500,"Neighborhood":"East Garfield Park","ParcelSqFt":1920,"StructureSqFt":""},"geometry":{"type":"Point","coordinates":[-87.7017908,41.8804791]}},{"type":"Feature","properties":{"ParcelNumber":"16-13-102-015-0000","Street":"27 S WHIPPLE ST","City":"CHICAGO","State":"IL","PostalCode":60612,"Full Address":"27 S WHIPPLE ST CHICAGO IL 60612 ","PropertyClassification":"Residential Land","Ward":28,"MinimumOfferAmount":7500,"Neighborhood":"East Garfield Park","ParcelSqFt":1920,"StructureSqFt":""},"geometry":{"type":"Point","coordinates":[-87.7017781,41.8801572]}},{"type":"Feature","properties":{"ParcelNumber":"16-13-102-017-0000","Street":"33 S WHIPPLE ST","City":"CHICAGO","State":"IL","PostalCode":60612,"Full Address":"33 S WHIPPLE ST CHICAGO IL 60612 ","PropertyClassification":"Residential Land","Ward":28,"MinimumOfferAmount":7500,"Neighborhood":"East Garfield Park","ParcelSqFt":1920,"StructureSqFt":""},"geometry":{"type":"Point","coordinates":[-87.7017733,41.8800255]}},{"type":"Feature","properties":{"ParcelNumber":"16-13-102-018-0000","Street":"35 S WHIPPLE ST","City":"CHICAGO","State":"IL","PostalCode":60612,"Full Address":"35 S WHIPPLE ST CHICAGO IL 60612 ","PropertyClassification":"Residential Land","Ward":28,"MinimumOfferAmount":7500,"Neighborhood":"East Garfield Park","ParcelSqFt":1920,"StructureSqFt":""},"geometry":{"type":"Point","coordinates":[-87.7017577,41.8799351]}},{"type":"Feature","properties":{"ParcelNumber":"16-13-102-036-0000","Street":"38 S SACRAMENTO AVE","City":"CHICAGO","State":"IL","PostalCode":60612,"Full Address":"38 S SACRAMENTO AVE CHICAGO IL 60612 ","PropertyClassification":"Residential Land","Ward":28,"MinimumOfferAmount":5500,"Neighborhood":"East Garfield Park","ParcelSqFt":1533,"StructureSqFt":""},"geometry":{"type":"Point","coordinates":[-87.7014209,41.8799046]}},{"type":"Feature","properties":{"ParcelNumber":"16-13-107-008-0000","Street":"3151 W MONROE ST","City":"CHICAGO","State":"IL","PostalCode":"60612-2709","Full Address":"3151 W MONROE ST CHICAGO IL 60612-2709 ","PropertyClassification":"Residential Land","Ward":28,"MinimumOfferAmount":15000,"Neighborhood":"East Garfield Park","ParcelSqFt":3312,"StructureSqFt":""},"geometry":{"type":"Point","coordinates":[-87.7047122,41.8794548]}},{"type":"Feature","properties":{"ParcelNumber":"16-13-107-020-0000","Street":"3125 W MONROE ST","City":"CHICAGO","State":"IL","PostalCode":60612,"Full Address":"3125 W MONROE ST CHICAGO IL 60612 ","PropertyClassification":"Residential Land","Ward":28,"MinimumOfferAmount":3000,"Neighborhood":"East Garfield Park","ParcelSqFt":93,"StructureSqFt":""},"geometry":{"type":"Point","coordinates":[-87.7039583,41.8794761]}},{"type":"Feature","properties":{"ParcelNumber":"16-13-107-021-0000","Street":"3125 W MONROE ST","City":"CHICAGO","State":"IL","PostalCode":60612,"Full Address":"3125 W MONROE ST CHICAGO IL 60612 ","PropertyClassification":"Residential Land","Ward":28,"MinimumOfferAmount":9500,"Neighborhood":"East Garfield Park","ParcelSqFt":2604,"StructureSqFt":""},"geometry":{"type":"Point","coordinates":[-87.7039583,41.8794761]}},{"type":"Feature","properties":{"ParcelNumber":"16-13-107-040-0000","Street":"3126 W FIFTH AVE","City":"CHICAGO","State":"IL","PostalCode":60612,"Full Address":"3126 W FIFTH AVE CHICAGO IL 60612 ","PropertyClassification":"Commercial Land","Ward":28,"MinimumOfferAmount":20000,"Neighborhood":"East Garfield Park","ParcelSqFt":3062,"StructureSqFt":""},"geometry":{"type":"Point","coordinates":[-87.7049019,41.8788692]}},{"type":"Feature","properties":{"ParcelNumber":"16-13-113-009-0000","Street":"3107 W FIFTH AVE","City":"CHICAGO","State":"IL","PostalCode":60612,"Full Address":"3107 W FIFTH AVE CHICAGO IL 60612 ","PropertyClassification":"Commercial Land","Ward":28,"MinimumOfferAmount":18750,"Neighborhood":"East Garfield Park","ParcelSqFt":3000,"StructureSqFt":""},"geometry":{"type":"Point","coordinates":[-87.703993,41.878667]}},{"type":"Feature","properties":{"ParcelNumber":"16-13-115-013-0000","Street":"131 S WHIPPLE ST","City":"CHICAGO","State":"IL","PostalCode":60612,"Full Address":"131 S WHIPPLE ST CHICAGO IL 60612 ","PropertyClassification":"Residential Land","Ward":28,"MinimumOfferAmount":20000,"Neighborhood":"East Garfield Park","ParcelSqFt":8250,"StructureSqFt":""},"geometry":{"type":"Point","coordinates":[-87.702017,41.878746]}},{"type":"Feature","properties":{"ParcelNumber":"16-13-115-023-0000","Street":"209 S WHIPPLE ST","City":"CHICAGO","State":"IL","PostalCode":60612,"Full Address":"209 S WHIPPLE ST CHICAGO IL 60612 ","PropertyClassification":"Residential Land","Ward":28,"MinimumOfferAmount":12000,"Neighborhood":"East Garfield Park","ParcelSqFt":3085,"StructureSqFt":""},"geometry":{"type":"Point","coordinates":[-87.7020618,41.8779087]}},{"type":"Feature","properties":{"ParcelNumber":"16-13-115-024-0000","Street":"211 S WHIPPLE ST","City":"CHICAGO","State":"IL","PostalCode":"60612-2744","Full Address":"211 S WHIPPLE ST CHICAGO IL 60612-2744 ","PropertyClassification":"Residential Land","Ward":28,"MinimumOfferAmount":12000,"Neighborhood":"East Garfield Park","ParcelSqFt":3000,"StructureSqFt":""},"geometry":{"type":"Point","coordinates":[-87.7020538,41.8778909]}},{"type":"Feature","properties":{"ParcelNumber":"16-13-120-005-0000","Street":"3015 W JACKSON BLVD","City":"CHICAGO","State":"IL","PostalCode":60612,"Full Address":"3015 W JACKSON BLVD CHICAGO IL 60612 ","PropertyClassification":"Residential Land","Ward":28,"MinimumOfferAmount":15000,"Neighborhood":"East Garfield Park","ParcelSqFt":3125,"StructureSqFt":""},"geometry":{"type":"Point","coordinates":[-87.7016574,41.8771087]}},{"type":"Feature","properties":{"ParcelNumber":"16-13-224-011-0000","Street":"2631 W GLADYS AVE","City":"CHICAGO","State":"IL","PostalCode":60612,"Full Address":"2631 W GLADYS AVE CHICAGO IL 60612 ","PropertyClassification":"Commercial Land","Ward":28,"MinimumOfferAmount":10000,"Neighborhood":"East Garfield Park","ParcelSqFt":2600,"StructureSqFt":""},"geometry":{"type":"Point","coordinates":[-87.692568,41.8765999]}},{"type":"Feature","properties":{"ParcelNumber":"16-13-300-026-0000","Street":"3114 W FLOURNOY ST","City":"CHICAGO","State":"IL","PostalCode":60612,"Full Address":"3114 W FLOURNOY ST CHICAGO IL 60612 ","PropertyClassification":"Residential Land","Ward":24,"MinimumOfferAmount":8500,"Neighborhood":"East Garfield Park","ParcelSqFt":2475,"StructureSqFt":""},"geometry":{"type":"Point","coordinates":[-87.7040587,41.8730164]}},{"type":"Feature","properties":{"ParcelNumber":"16-13-302-008-0000","Street":"2935 W HARRISON ST","City":"CHICAGO","State":"IL","PostalCode":60612,"Full Address":"2935 W HARRISON ST CHICAGO IL 60612 ","PropertyClassification":"Commercial Land","Ward":28,"MinimumOfferAmount":20000,"Neighborhood":"East Garfield Park","ParcelSqFt":3325,"StructureSqFt":""},"geometry":{"type":"Point","coordinates":[-87.6999081,41.8735408]}},{"type":"Feature","properties":{"ParcelNumber":"16-13-302-011-0000","Street":"2923 W HARRISON ST","City":"CHICAGO","State":"IL","PostalCode":60612,"Full Address":"2923 W HARRISON ST CHICAGO IL 60612 ","PropertyClassification":"Commercial Land","Ward":28,"MinimumOfferAmount":28000,"Neighborhood":"East Garfield Park","ParcelSqFt":5750,"StructureSqFt":""},"geometry":{"type":"Point","coordinates":[-87.6995899,41.8735444]}},{"type":"Feature","properties":{"ParcelNumber":"16-13-302-018-0000","Street":"2907 W HARRISON ST","City":"CHICAGO","State":"IL","PostalCode":60612,"Full Address":"2907 W HARRISON ST CHICAGO IL 60612 ","PropertyClassification":"Commercial Land","Ward":28,"MinimumOfferAmount":15775,"Neighborhood":"East Garfield Park","ParcelSqFt":3125,"StructureSqFt":""},"geometry":{"type":"Point","coordinates":[-87.6988451,41.8735025]}},{"type":"Feature","properties":{"ParcelNumber":"16-13-302-039-0000","Street":"2901 W HARRISON ST","City":"CHICAGO","State":"IL","PostalCode":60612,"Full Address":"2901 W HARRISON ST CHICAGO IL 60612 ","PropertyClassification":"Commercial Land","Ward":28,"MinimumOfferAmount":15775,"Neighborhood":"East Garfield Park","ParcelSqFt":2524,"StructureSqFt":""},"geometry":{"type":"Point","coordinates":[-87.6987314,41.873572]}},{"type":"Feature","properties":{"ParcelNumber":"16-13-303-031-0000","Street":"2836 W FLOURNOY ST","City":"CHICAGO","State":"IL","PostalCode":60612,"Full Address":"2836 W FLOURNOY ST CHICAGO IL 60612 ","PropertyClassification":"Residential Land","Ward":28,"MinimumOfferAmount":18000,"Neighborhood":"East Garfield Park","ParcelSqFt":3671,"StructureSqFt":""},"geometry":{"type":"Point","coordinates":[-87.697517,41.873133]}},{"type":"Feature","properties":{"ParcelNumber":"16-13-305-016-0000","Street":"3021 W FLOURNOY ST","City":"CHICAGO","State":"IL","PostalCode":60612,"Full Address":"3021 W FLOURNOY ST CHICAGO IL 60612 ","PropertyClassification":"Residential Land","Ward":28,"MinimumOfferAmount":15000,"Neighborhood":"East Garfield Park","ParcelSqFt":3125,"StructureSqFt":""},"geometry":{"type":"Point","coordinates":[-87.7018351,41.8725654]}},{"type":"Feature","properties":{"ParcelNumber":"16-13-305-018-0000","Street":"3015 W FLOURNOY ST","City":"CHICAGO","State":"IL","PostalCode":"60612-3338","Full Address":"3015 W FLOURNOY ST CHICAGO IL 60612-3338 ","PropertyClassification":"Residential Land","Ward":28,"MinimumOfferAmount":15000,"Neighborhood":"East Garfield Park","ParcelSqFt":3127,"StructureSqFt":""},"geometry":{"type":"Point","coordinates":[-87.7016769,41.872566]}},{"type":"Feature","properties":{"ParcelNumber":"16-13-306-028-0000","Street":"2907 W FLOURNOY ST","City":"CHICAGO","State":"IL","PostalCode":60612,"Full Address":"2907 W FLOURNOY ST CHICAGO IL 60612 ","PropertyClassification":"Residential Land","Ward":28,"MinimumOfferAmount":13500,"Neighborhood":"East Garfield Park","ParcelSqFt":2750,"StructureSqFt":""},"geometry":{"type":"Point","coordinates":[-87.698863,41.8726259]}},{"type":"Feature","properties":{"ParcelNumber":"16-13-306-029-0000","Street":"2905 W FLOURNOY ST","City":"CHICAGO","State":"IL","PostalCode":60612,"Full Address":"2905 W FLOURNOY ST CHICAGO IL 60612 ","PropertyClassification":"Residential Land","Ward":28,"MinimumOfferAmount":13500,"Neighborhood":"East Garfield Park","ParcelSqFt":2770,"StructureSqFt":""},"geometry":{"type":"Point","coordinates":[-87.6987233,41.872632]}},{"type":"Feature","properties":{"ParcelNumber":"16-13-307-037-0000","Street":"2826 W LEXINGTON ST","City":"CHICAGO","State":"IL","PostalCode":60612,"Full Address":"2826 W LEXINGTON ST CHICAGO IL 60612 ","PropertyClassification":"Residential Land","Ward":28,"MinimumOfferAmount":15000,"Neighborhood":"East Garfield Park","ParcelSqFt":3125,"StructureSqFt":""},"geometry":{"type":"Point","coordinates":[-87.6970775,41.8722383]}},{"type":"Feature","properties":{"ParcelNumber":"16-13-309-022-0000","Street":"3007 W LEXINGTON ST","City":"CHICAGO","State":"IL","PostalCode":60612,"Full Address":"3007 W LEXINGTON ST CHICAGO IL 60612 ","PropertyClassification":"Residential Land","Ward":28,"MinimumOfferAmount":15000,"Neighborhood":"East Garfield Park","ParcelSqFt":3125,"StructureSqFt":""},"geometry":{"type":"Point","coordinates":[-87.7012481,41.8717152]}},{"type":"Feature","properties":{"ParcelNumber":"16-13-309-040-0000","Street":"3018 W POLK ST","City":"CHICAGO","State":"IL","PostalCode":60612,"Full Address":"3018 W POLK ST CHICAGO IL 60612 ","PropertyClassification":"Residential Land","Ward":28,"MinimumOfferAmount":15000,"Neighborhood":"East Garfield Park","ParcelSqFt":3125,"StructureSqFt":""},"geometry":{"type":"Point","coordinates":[-87.7016849,41.8712802]}},{"type":"Feature","properties":{"ParcelNumber":"16-13-312-023-0000","Street":"330 W POLK ST","City":"CHICAGO","State":"IL","PostalCode":60607,"Full Address":"330 W POLK ST CHICAGO IL 60607 ","PropertyClassification":"Residential Land","Ward":24,"MinimumOfferAmount":15000,"Neighborhood":"East Garfield Park","ParcelSqFt":3125,"StructureSqFt":""},"geometry":{"type":"Point","coordinates":[-87.6368592,41.8720811]}},{"type":"Feature","properties":{"ParcelNumber":"16-13-312-040-0000","Street":"3110 W ARTHINGTON ST","City":"CHICAGO","State":"IL","PostalCode":60612,"Full Address":"3110 W ARTHINGTON ST CHICAGO IL 60612 ","PropertyClassification":"Residential Land","Ward":24,"MinimumOfferAmount":15000,"Neighborhood":"East Garfield Park","ParcelSqFt":3125,"StructureSqFt":""},"geometry":{"type":"Point","coordinates":[-87.703874,41.870326]}},{"type":"Feature","properties":{"ParcelNumber":"16-13-313-011-0000","Street":"3035 W POLK ST","City":"CHICAGO","State":"IL","PostalCode":60612,"Full Address":"3035 W POLK ST CHICAGO IL 60612 ","PropertyClassification":"Residential Land","Ward":28,"MinimumOfferAmount":15000,"Neighborhood":"East Garfield Park","ParcelSqFt":3125,"StructureSqFt":""},"geometry":{"type":"Point","coordinates":[-87.7022194,41.8707409]}},{"type":"Feature","properties":{"ParcelNumber":"16-13-313-012-0000","Street":"3031 W POLK ST","City":"CHICAGO","State":"IL","PostalCode":60612,"Full Address":"3031 W POLK ST CHICAGO IL 60612 ","PropertyClassification":"Residential Land","Ward":28,"MinimumOfferAmount":15000,"Neighborhood":"East Garfield Park","ParcelSqFt":3125,"StructureSqFt":""},"geometry":{"type":"Point","coordinates":[-87.702193,41.8707823]}},{"type":"Feature","properties":{"ParcelNumber":"16-13-313-016-0000","Street":"3021 W POLK ST","City":"CHICAGO","State":"IL","PostalCode":60612,"Full Address":"3021 W POLK ST CHICAGO IL 60612 ","PropertyClassification":"Residential Land","Ward":28,"MinimumOfferAmount":15000,"Neighborhood":"East Garfield Park","ParcelSqFt":3125,"StructureSqFt":""},"geometry":{"type":"Point","coordinates":[-87.701819,41.870742]}},{"type":"Feature","properties":{"ParcelNumber":"16-13-313-017-0000","Street":"3019 W POLK ST","City":"CHICAGO","State":"IL","PostalCode":60612,"Full Address":"3019 W POLK ST CHICAGO IL 60612 ","PropertyClassification":"Residential Land","Ward":28,"MinimumOfferAmount":15000,"Neighborhood":"East Garfield Park","ParcelSqFt":3125,"StructureSqFt":""},"geometry":{"type":"Point","coordinates":[-87.701729,41.870744]}},{"type":"Feature","properties":{"ParcelNumber":"16-13-313-018-0000","Street":"3017 W POLK ST","City":"CHICAGO","State":"IL","PostalCode":60612,"Full Address":"3017 W POLK ST CHICAGO IL 60612 ","PropertyClassification":"Residential Land","Ward":28,"MinimumOfferAmount":15000,"Neighborhood":"East Garfield Park","ParcelSqFt":3125,"StructureSqFt":""},"geometry":{"type":"Point","coordinates":[-87.7016386,41.8707926]}},{"type":"Feature","properties":{"ParcelNumber":"16-13-316-015-0000","Street":"3133 W ARTHINGTON ST","City":"CHICAGO","State":"IL","PostalCode":60612,"Full Address":"3133 W ARTHINGTON ST CHICAGO IL 60612 ","PropertyClassification":"Residential Land","Ward":24,"MinimumOfferAmount":15000,"Neighborhood":"East Garfield Park","ParcelSqFt":3125,"StructureSqFt":""},"geometry":{"type":"Point","coordinates":[-87.704676,41.869791]}},{"type":"Feature","properties":{"ParcelNumber":"16-13-316-045-0000","Street":"3100 W TAYLOR ST","City":"CHICAGO","State":"IL","PostalCode":60612,"Full Address":"3100 W TAYLOR ST CHICAGO IL 60612 ","PropertyClassification":"Commercial Land","Ward":24,"MinimumOfferAmount":99000,"Neighborhood":"East Garfield Park","ParcelSqFt":3125,"StructureSqFt":""},"geometry":{"type":"Point","coordinates":[-87.703486,41.869421]}},{"type":"Feature","properties":{"ParcelNumber":"16-13-317-002-0000","Street":"3055 W ARTHINGTON ST","City":"CHICAGO","State":"IL","PostalCode":60612,"Full Address":"3055 W ARTHINGTON ST CHICAGO IL 60612 ","PropertyClassification":"Residential Land","Ward":28,"MinimumOfferAmount":15000,"Neighborhood":"East Garfield Park","ParcelSqFt":3125,"StructureSqFt":""},"geometry":{"type":"Point","coordinates":[-87.702966,41.869815]}},{"type":"Feature","properties":{"ParcelNumber":"16-13-317-003-0000","Street":"3051 W ARTHINGTON ST","City":"CHICAGO","State":"IL","PostalCode":60612,"Full Address":"3051 W ARTHINGTON ST CHICAGO IL 60612 ","PropertyClassification":"Residential Land","Ward":28,"MinimumOfferAmount":15000,"Neighborhood":"East Garfield Park","ParcelSqFt":3125,"StructureSqFt":""},"geometry":{"type":"Point","coordinates":[-87.7028327,41.8698204]}},{"type":"Feature","properties":{"ParcelNumber":"16-13-318-002-0000","Street":"905 S SACRAMENTO AVE","City":"CHICAGO","State":"IL","PostalCode":60612,"Full Address":"905 S SACRAMENTO AVE CHICAGO IL 60612 ","PropertyClassification":"Residential Land","Ward":28,"MinimumOfferAmount":15000,"Neighborhood":"East Garfield Park","ParcelSqFt":3131,"StructureSqFt":""},"geometry":{"type":"Point","coordinates":[-87.7006146,41.8698977]}},{"type":"Feature","properties":{"ParcelNumber":"16-13-318-008-0000","Street":"2941 W ARTHINGTON ST","City":"CHICAGO","State":"IL","PostalCode":60612,"Full Address":"2941 W ARTHINGTON ST CHICAGO IL 60612 ","PropertyClassification":"Residential Land","Ward":28,"MinimumOfferAmount":15000,"Neighborhood":"East Garfield Park","ParcelSqFt":3125,"StructureSqFt":""},"geometry":{"type":"Point","coordinates":[-87.7000783,41.8698086]}},{"type":"Feature","properties":{"ParcelNumber":"16-13-318-011-0000","Street":"2933 W ARTHINGTON ST","City":"CHICAGO","State":"IL","PostalCode":60612,"Full Address":"2933 W ARTHINGTON ST CHICAGO IL 60612 ","PropertyClassification":"Residential Land","Ward":28,"MinimumOfferAmount":15000,"Neighborhood":"East Garfield Park","ParcelSqFt":3125,"StructureSqFt":""},"geometry":{"type":"Point","coordinates":[-87.6997503,41.8698498]}},{"type":"Feature","properties":{"ParcelNumber":"16-13-319-008-0000","Street":"2841 W ARTHINGTON ST","City":"CHICAGO","State":"IL","PostalCode":60612,"Full Address":"2841 W ARTHINGTON ST CHICAGO IL 60612 ","PropertyClassification":"Residential Land","Ward":28,"MinimumOfferAmount":15000,"Neighborhood":"East Garfield Park","ParcelSqFt":3000,"StructureSqFt":""},"geometry":{"type":"Point","coordinates":[-87.697619,41.86987]}},{"type":"Feature","properties":{"ParcelNumber":"16-13-319-013-0000","Street":"2829 W ARTHINGTON ST","City":"CHICAGO","State":"IL","PostalCode":60612,"Full Address":"2829 W ARTHINGTON ST CHICAGO IL 60612 ","PropertyClassification":"Residential Land","Ward":28,"MinimumOfferAmount":15000,"Neighborhood":"East Garfield Park","ParcelSqFt":3000,"StructureSqFt":""},"geometry":{"type":"Point","coordinates":[-87.6970823,41.8697593]}},{"type":"Feature","properties":{"ParcelNumber":"16-14-120-001-0000","Street":"3631 W FIFTH AVE","City":"CHICAGO","State":"IL","PostalCode":60624,"Full Address":"3631 W FIFTH AVE CHICAGO IL 60624 ","PropertyClassification":"Residential Land","Ward":28,"MinimumOfferAmount":18000,"Neighborhood":"East Garfield Park","ParcelSqFt":3750,"StructureSqFt":""},"geometry":{"type":"Point","coordinates":[-87.7168083,41.8750849]}},{"type":"Feature","properties":{"ParcelNumber":"16-14-120-008-0000","Street":"3615 W FIFTH AVE","City":"CHICAGO","State":"IL","PostalCode":60624,"Full Address":"3615 W FIFTH AVE CHICAGO IL 60624 ","PropertyClassification":"Residential Land","Ward":28,"MinimumOfferAmount":18000,"Neighborhood":"East Garfield Park","ParcelSqFt":3750,"StructureSqFt":""},"geometry":{"type":"Point","coordinates":[-87.716237,41.875212]}},{"type":"Feature","properties":{"ParcelNumber":"16-14-120-010-0000","Street":"3609 W FIFTH AVE","City":"CHICAGO","State":"IL","PostalCode":60624,"Full Address":"3609 W FIFTH AVE CHICAGO IL 60624 ","PropertyClassification":"Residential Land","Ward":28,"MinimumOfferAmount":18000,"Neighborhood":"East Garfield Park","ParcelSqFt":3750,"StructureSqFt":""},"geometry":{"type":"Point","coordinates":[-87.716065,41.87526]}},{"type":"Feature","properties":{"ParcelNumber":"16-14-120-011-0000","Street":"3605 W FIFTH AVE","City":"CHICAGO","State":"IL","PostalCode":60624,"Full Address":"3605 W FIFTH AVE CHICAGO IL 60624 ","PropertyClassification":"Residential Land","Ward":28,"MinimumOfferAmount":18000,"Neighborhood":"East Garfield Park","ParcelSqFt":3750,"StructureSqFt":""},"geometry":{"type":"Point","coordinates":[-87.715982,41.875283]}},{"type":"Feature","properties":{"ParcelNumber":"16-14-120-012-0000","Street":"3601 W FIFTH AVE","City":"CHICAGO","State":"IL","PostalCode":60624,"Full Address":"3601 W FIFTH AVE CHICAGO IL 60624 ","PropertyClassification":"Residential Land","Ward":28,"MinimumOfferAmount":18000,"Neighborhood":"East Garfield Park","ParcelSqFt":3930,"StructureSqFt":""},"geometry":{"type":"Point","coordinates":[-87.715917,41.875376]}},{"type":"Feature","properties":{"ParcelNumber":"16-14-204-018-0000","Street":"3509 W MONROE ST","City":"CHICAGO","State":"IL","PostalCode":60624,"Full Address":"3509 W MONROE ST CHICAGO IL 60624 ","PropertyClassification":"Residential Land","Ward":28,"MinimumOfferAmount":8500,"Neighborhood":"East Garfield Park","ParcelSqFt":2662,"StructureSqFt":""},"geometry":{"type":"Point","coordinates":[-87.713949,41.879276]}},{"type":"Feature","properties":{"ParcelNumber":"16-14-205-020-0000","Street":"3409 W MONROE ST","City":"CHICAGO","State":"IL","PostalCode":60624,"Full Address":"3409 W MONROE ST CHICAGO IL 60624 ","PropertyClassification":"Residential Land","Ward":28,"MinimumOfferAmount":68000,"Neighborhood":"East Garfield Park","ParcelSqFt":19537.04,"StructureSqFt":""},"geometry":{"type":"Point","coordinates":[-87.711148,41.8793241]}},{"type":"Feature","properties":{"ParcelNumber":"16-14-214-021-0000","Street":"323 S CENTRAL PARK AVE","City":"CHICAGO","State":"IL","PostalCode":60624,"Full Address":"323 S CENTRAL PARK AVE CHICAGO IL 60624 ","PropertyClassification":"Residential Land","Ward":28,"MinimumOfferAmount":22000,"Neighborhood":"East Garfield Park","ParcelSqFt":5000,"StructureSqFt":""},"geometry":{"type":"Point","coordinates":[-87.7154953,41.8764889]}},{"type":"Feature","properties":{"ParcelNumber":"16-14-215-007-0000","Street":"3451 W FIFTH AVE","City":"CHICAGO","State":"IL","PostalCode":60624,"Full Address":"3451 W FIFTH AVE CHICAGO IL 60624 ","PropertyClassification":"Residential Land","Ward":28,"MinimumOfferAmount":46500,"Neighborhood":"East Garfield Park","ParcelSqFt":5125,"StructureSqFt":""},"geometry":{"type":"Point","coordinates":[-87.7129365,41.8769312]}},{"type":"Feature","properties":{"ParcelNumber":"16-14-215-014-0000","Street":"3460 W FIFTH AVE","City":"CHICAGO","State":"IL","PostalCode":60624,"Full Address":"3460 W FIFTH AVE CHICAGO IL 60624 ","PropertyClassification":"Commercial Land","Ward":28,"MinimumOfferAmount":70000,"Neighborhood":"East Garfield Park","ParcelSqFt":7668,"StructureSqFt":""},"geometry":{"type":"Point","coordinates":[-87.7130531,41.8763229]}},{"type":"Feature","properties":{"ParcelNumber":"16-14-215-016-0000","Street":"3454 W FIFTH AVE","City":"CHICAGO","State":"IL","PostalCode":60624,"Full Address":"3454 W FIFTH AVE CHICAGO IL 60624 ","PropertyClassification":"Commercial Land","Ward":28,"MinimumOfferAmount":24000,"Neighborhood":"East Garfield Park","ParcelSqFt":2675,"StructureSqFt":""},"geometry":{"type":"Point","coordinates":[-87.712931,41.876686]}},{"type":"Feature","properties":{"ParcelNumber":"16-14-216-001-0000","Street":"3575 W FIFTH AVE","City":"CHICAGO","State":"IL","PostalCode":60624,"Full Address":"3575 W FIFTH AVE CHICAGO IL 60624 ","PropertyClassification":"Commercial Land","Ward":28,"MinimumOfferAmount":11000,"Neighborhood":"East Garfield Park","ParcelSqFt":1534,"StructureSqFt":""},"geometry":{"type":"Point","coordinates":[-87.7155088,41.8755703]}},{"type":"Feature","properties":{"ParcelNumber":"16-14-216-002-0000","Street":"3573 W FIFTH AVE","City":"CHICAGO","State":"IL","PostalCode":60624,"Full Address":"3573 W FIFTH AVE CHICAGO IL 60624 ","PropertyClassification":"Commercial Land","Ward":28,"MinimumOfferAmount":11000,"Neighborhood":"East Garfield Park","ParcelSqFt":1625,"StructureSqFt":""},"geometry":{"type":"Point","coordinates":[-87.7154113,41.8755875]}},{"type":"Feature","properties":{"ParcelNumber":"16-14-216-022-0000","Street":"3542 W VAN BUREN ST","City":"CHICAGO","State":"IL","PostalCode":60624,"Full Address":"3542 W VAN BUREN ST CHICAGO IL 60624 ","PropertyClassification":"Residential Land","Ward":28,"MinimumOfferAmount":8500,"Neighborhood":"East Garfield Park","ParcelSqFt":2160,"StructureSqFt":""},"geometry":{"type":"Point","coordinates":[-87.7144203,41.8755946]}},{"type":"Feature","properties":{"ParcelNumber":"16-14-216-027-0000","Street":"3528 W VAN BUREN ST","City":"CHICAGO","State":"IL","PostalCode":60624,"Full Address":"3528 W VAN BUREN ST CHICAGO IL 60624 ","PropertyClassification":"Residential Land","Ward":28,"MinimumOfferAmount":8500,"Neighborhood":"East Garfield Park","ParcelSqFt":2256,"StructureSqFt":""},"geometry":{"type":"Point","coordinates":[-87.714055,41.875628]}},{"type":"Feature","properties":{"ParcelNumber":"16-14-216-036-0000","Street":"3500 W VAN BUREN ST","City":"CHICAGO","State":"IL","PostalCode":60624,"Full Address":"3500 W VAN BUREN ST CHICAGO IL 60624 ","PropertyClassification":"Residential Land","Ward":28,"MinimumOfferAmount":13500,"Neighborhood":"East Garfield Park","ParcelSqFt":3080,"StructureSqFt":""},"geometry":{"type":"Point","coordinates":[-87.7131103,41.8756874]}},{"type":"Feature","properties":{"ParcelNumber":"16-14-222-001-0000","Street":"341 S CHRISTINA AVE","City":"CHICAGO","State":"IL","PostalCode":60624,"Full Address":"341 S CHRISTINA AVE CHICAGO IL 60624 ","PropertyClassification":"Residential Land","Ward":28,"MinimumOfferAmount":24000,"Neighborhood":"East Garfield Park","ParcelSqFt":5000,"StructureSqFt":""},"geometry":{"type":"Point","coordinates":[-87.7095177,41.8759865]}},{"type":"Feature","properties":{"ParcelNumber":"16-14-222-011-0000","Street":"3324 W VAN BUREN ST","City":"CHICAGO","State":"IL","PostalCode":60624,"Full Address":"3324 W VAN BUREN ST CHICAGO IL 60624 ","PropertyClassification":"Residential Land","Ward":28,"MinimumOfferAmount":9500,"Neighborhood":"East Garfield Park","ParcelSqFt":2500,"StructureSqFt":""},"geometry":{"type":"Point","coordinates":[-87.7094192,41.8756919]}},{"type":"Feature","properties":{"ParcelNumber":"16-14-222-012-0000","Street":"3322 W VAN BUREN ST","City":"CHICAGO","State":"IL","PostalCode":"60624-3339","Full Address":"3322 W VAN BUREN ST CHICAGO IL 60624-3339 ","PropertyClassification":"Residential Land","Ward":28,"MinimumOfferAmount":9500,"Neighborhood":"East Garfield Park","ParcelSqFt":2500,"StructureSqFt":""},"geometry":{"type":"Point","coordinates":[-87.7093911,41.8756949]}},{"type":"Feature","properties":{"ParcelNumber":"16-14-222-013-0000","Street":"3320 W VAN BUREN ST","City":"CHICAGO","State":"IL","PostalCode":60624,"Full Address":"3320 W VAN BUREN ST CHICAGO IL 60624 ","PropertyClassification":"Residential Land","Ward":28,"MinimumOfferAmount":9500,"Neighborhood":"East Garfield Park","ParcelSqFt":2500,"StructureSqFt":""},"geometry":{"type":"Point","coordinates":[-87.7093142,41.8756934]}},{"type":"Feature","properties":{"ParcelNumber":"16-14-224-002-0000","Street":"417 S CENTRAL PARK AVE","City":"CHICAGO","State":"IL","PostalCode":60624,"Full Address":"417 S CENTRAL PARK AVE CHICAGO IL 60624 ","PropertyClassification":"Residential Land","Ward":24,"MinimumOfferAmount":25000,"Neighborhood":"East Garfield Park","ParcelSqFt":9450,"StructureSqFt":""},"geometry":{"type":"Point","coordinates":[-87.7153315,41.875152]}},{"type":"Feature","properties":{"ParcelNumber":"16-14-224-040-0000","Street":"3516 W CONGRESS PKY","City":"CHICAGO","State":"IL","PostalCode":60624,"Full Address":"3516 W CONGRESS PKY CHICAGO IL 60624 ","PropertyClassification":"Residential Land","Ward":28,"MinimumOfferAmount":15000,"Neighborhood":"East Garfield Park","ParcelSqFt":3125,"StructureSqFt":""},"geometry":{"type":"Point","coordinates":[-87.7135286,41.8747496]}},{"type":"Feature","properties":{"ParcelNumber":"16-14-227-007-0000","Street":"3341 W VAN BUREN ST","City":"CHICAGO","State":"IL","PostalCode":60624,"Full Address":"3341 W VAN BUREN ST CHICAGO IL 60624 ","PropertyClassification":"Residential Land","Ward":28,"MinimumOfferAmount":15000,"Neighborhood":"East Garfield Park","ParcelSqFt":3125,"StructureSqFt":""},"geometry":{"type":"Point","coordinates":[-87.7100491,41.875285]}},{"type":"Feature","properties":{"ParcelNumber":"16-14-227-030-0000","Street":"3342 W CONGRESS PKY","City":"CHICAGO","State":"IL","PostalCode":60624,"Full Address":"3342 W CONGRESS PKY CHICAGO IL 60624 ","PropertyClassification":"Residential Land","Ward":28,"MinimumOfferAmount":15000,"Neighborhood":"East Garfield Park","ParcelSqFt":3125,"StructureSqFt":""},"geometry":{"type":"Point","coordinates":[-87.7101224,41.8747013]}},{"type":"Feature","properties":{"ParcelNumber":"16-14-411-031-0000","Street":"3214 W POLK ST","City":"CHICAGO","State":"IL","PostalCode":"60624-4134","Full Address":"3214 W POLK ST CHICAGO IL 60624-4134 ","PropertyClassification":"Residential Land","Ward":24,"MinimumOfferAmount":15000,"Neighborhood":"East Garfield Park","ParcelSqFt":3095},"geometry":{"type":"Point","coordinates":[-87.7065194,41.8712016]}}]}